     2.11           OBSERVATION DATA    G (GPS)             RINEX VERSION / TYPE
teqc  2010Oct21     administrateur ccgps20111014 15:25:54UTCPGM / RUN BY / DATE
Solaris 5.9|UltraSparc IIe|cc -xarch=v9 SC5.8|=+-|*Sparc    COMMENT
teqc  2010Oct21     administrateur ccgps20111014 12:07:42UTCCOMMENT
teqc  2009Oct19     CNES                20111014 08:47:57UTCCOMMENT
MSXP|IAx86-PII|bcc32 5.0|MSWin95->XP|486/DX+                COMMENT
teqc  2009Oct19                         20111014 08:47:56UTCCOMMENT
BIT 2 OF LLI FLAGS DATA COLLECTED UNDER A/S CONDITION       COMMENT
KERG                                                        MARKER NAME
91201M002                                                   MARKER NUMBER
CARDALIAGUET        CNES                                    OBSERVER / AGENCY
04004               ASHTECH UZ-12       CN00-1A01           REC # / TYPE / VERS
CR6200539022        ASH701945E_M    SNOW                    ANT # / TYPE
  1406342.3800  3918168.1400 -4816177.9100                  APPROX POSITION XYZ
        0.4200        0.0000        0.0000                  ANTENNA: DELTA H/E/N
     1     1                                                WAVELENGTH FACT L1/2
     7    L1    L2    C1    P1    P2    D1    D2            # / TYPES OF OBSERV
    30.0000                                                 INTERVAL
Version: Version:                                           COMMENT
Project: A__________________________                        COMMENT
 SNR is mapped to RINEX snr flag value [0-9]                COMMENT
  L1 & L2: min(max(int(snr_dBHz/6), 0), 9)                  COMMENT
pseudorange smoothing corrections not applied               COMMENT
Forced Modulo Decimation to 30 seconds                      COMMENT
  2011    10     9     0     0    0.0000000     GPS         TIME OF FIRST OBS
                                                            END OF HEADER
 11 10  9  0  0  0.0000000  0  8G28G32G17G14G19G20G01G11
 -10580796.25748  -8176399.71847  21714229.0704   21714228.4804   21714229.4794
     -1427.5774
 -20504986.51248 -15908009.66148  20629908.2894   20629907.8764   20629910.7864
      1018.9304
 -10364049.00947  -8000499.07246  22807865.1054   22807865.1414   22807867.6834
      3126.5954
  -5482914.61647  -4232184.95846  23490675.0274   23490674.9224   23490679.0224
      -756.5014
  -7570189.52847  -5816484.88246  23164991.0204   23164989.4554   23164991.0194
     -3367.4104
 -15517894.40248 -12031328.09547  21129960.7604   21129960.2414   21129962.3854
      2071.9804
 -11300843.20849  -8789318.15548  20250670.0884   20250669.6134   20250674.7784
      -207.1734
 -18647504.27548 -14459529.50148  20754239.4004   20754238.9944   20754240.5444
      -923.8814
 11 10  9  0  0 30.0000000  0  8G28G32G17G14G19G20G01G11
 -10537663.78548  -8142789.92647  21722436.4004   21722436.9904   21722437.8004
     -1447.8544
 -20535277.65548 -15931613.13048  20624144.2914   20624143.7374   20624146.5154
      1000.4844
 -10457741.66747  -8073506.35046  22790036.7124   22790036.3344   22790037.9714
      3119.5014
  -5459914.66947  -4214262.55346  23495052.5954   23495050.8134   23495056.8984
      -777.1174
  -7469047.57947  -5737673.05446  23184237.9774   23184236.5594   23184237.5924
     -3375.0004
 -15579844.62048 -12079600.98647  21118172.2984   21118171.5394   21118173.3174
      2058.0364
 -11294455.38049  -8784340.64248  20251885.5624   20251885.2434   20251890.1464
      -218.7544
 -18619627.38748 -14437807.29748  20759544.1014   20759543.6014   20759545.0214
      -934.4594
 11 10  9  0  1  0.0000000  0  8G28G32G17G14G19G20G01G11
 -10493914.46948  -8108699.54147  21730762.2574   21730761.2994   21730763.2974
     -1468.9044
 -20565007.29148 -15954779.11548  20618486.8344   20618486.5144   20618489.2314
       981.2534
 -10551212.75947  -8146340.99046  22772249.0334   22772249.7984   22772251.5874
      3111.4944
  -5436297.70647  -4195859.82246  23499546.8894   23499546.6324   23499550.6744
      -798.0614
  -7367675.94047  -5658682.26246  23203528.2334   23203527.4434   23203528.1994
     -3383.3164
 -15641364.24348 -12127538.34947  21106465.4494   21106465.3574   21106466.8454
      2043.1314
 -11287705.80349  -8779081.27248  20253170.1234   20253169.9034   20253174.9604
      -231.3894
 -18591426.74948 -14415832.83048  20764910.7584   20764910.5954   20764911.8694
      -945.7224
 11 10  9  0  1 30.0000000  0  8G28G32G17G14G19G20G01G11
 -10449545.97448  -8074126.68447  21739204.9824   21739204.5914   21739205.6134
     -1489.0074
 -20594170.37848 -15977503.64048  20612937.2404   20612936.7544   20612939.7664
       963.0924
 -10644455.54947  -8218997.71246  22754505.8024   22754506.9604   22754508.0274
      3104.5654
  -5412059.64347  -4176973.10646  23504158.9404   23504159.3944   23504161.5504
      -817.7354
  -7266072.22947  -5579510.62646  23222862.9614   23222862.2664   23222863.1994
     -3390.3814
 -15702447.88648 -12175135.99947  21094841.7804   21094841.2774   21094843.0034
      2028.9334
 -11280590.48349  -8773536.90948  20254523.8314   20254524.0324   20254528.8814
      -242.9654
 -18562898.11448 -14393602.74748  20770339.4494   20770339.5614   20770340.7894
      -956.1074
 11 10  9  0  2  0.0000000  0  8G28G32G17G14G19G20G01G11
 -10404562.99448  -8039074.97147  21747764.8304   21747765.2424   21747765.2924
     -1509.9304
 -20622769.29048 -15999788.53948  20607494.9574   20607494.4364   20607497.6644
       943.5244
 -10737470.91847  -8291477.20946  22736805.7724   22736806.1884   22736807.3614
      3096.2864
  -5387204.64847  -4157605.72146  23508888.2104   23508888.9534   23508892.2114
      -838.9134
  -7164240.92547  -5500161.63946  23242240.3754   23242240.0514   23242240.7784
     -3398.4074
 -15763097.56648 -12222395.49847  21083300.1104   21083300.1364   21083301.6604
      2014.0214
 -11273112.77949  -8767710.21548  20255946.9464   20255946.9354   20255951.9664
      -255.7434
 -18534044.73048 -14371119.60348  20775830.0934   20775829.9544   20775830.9924
      -967.4944
 11 10  9  0  2 30.0000000  0  8G28G32G17G14G19G20G01G11
 -10358964.92647  -8003543.97447  21756442.0354   21756441.9854   21756442.9434
     -1530.9114
 -20650800.58048 -16021631.15448  20602161.0154   20602160.5384   20602163.5874
       924.3034
 -10830254.05147  -8363775.73446  22719149.2284   22719149.6554   22719150.9194
      3088.3644
  -5361730.03347  -4137755.56246  23513735.8294   23513736.1654   23513739.7414
      -860.1574
  -7062180.91347  -5420634.43246  23261661.3094   23261661.3374   23261662.9964
     -3406.4294
 -15823309.22748 -12269313.69447  21071842.1574   21071841.8624   21071843.2674
      1999.1554
 -11265269.93549  -8761598.99048  20257439.6604   20257439.2814   20257444.4514
      -268.1404
 -18504863.83748 -14348381.23648  20781382.8694   20781382.7394   20781383.9954
      -978.7494
 11 10  9  0  3  0.0000000  0  8G28G32G17G14G19G20G01G11
 -10312756.68847  -7967537.53247  21765235.2734   21765234.0734   21765235.3784
     -1551.0284
 -20678266.51748 -16043033.19448  20596934.4514   20596933.7824   20596936.8964
       905.2894
 -10922805.76547  -8435893.94346  22701537.2954   22701537.6744   22701539.4764
      3080.7414
  -5335638.90347  -4117424.72146  23518700.3974   23518702.3184   23518705.4224
      -880.6754
  -6959896.58647  -5340932.43846  23281126.4514   23281126.4114   23281126.2694
     -3413.9184
 -15883084.25048 -12315891.64747  21060467.7134   21060467.4574   21060468.8024
      1984.5894
 -11257065.03349  -8755205.58648  20259000.9814   20259000.9054   20259005.7984
      -280.2144
 -18475358.31648 -14325389.91448  20786997.7104   20786997.5644   20786998.8884
      -989.5864
 11 10  9  0  3 30.0000000  0  8G28G32G17G14G19G20G01G11
 -10265939.59048  -7931056.62247  21774143.6544   21774143.3864   21774144.8434
     -1571.8264
 -20705166.06348 -16063993.90748  20591815.5104   20591815.0334   20591817.8954
       886.2834
 -11015122.46547  -8507829.02447  22683969.7094   22683970.0624   22683972.3854
      3072.3434
  -5308932.53146  -4096614.71946  23523782.7904   23523782.9494   23523786.2624
      -901.4714
  -6857388.89047  -5261056.39246  23300633.3244   23300631.9174   23300633.0204
     -3421.7014
 -15942421.19148 -12362128.22847  21049176.2304   21049175.4624   21049177.2784
      1969.5104
 -11248498.00349  -8748530.08748  20260631.1294   20260630.9954   20260635.7924
      -292.7474
 -18445528.02948 -14302145.56048  20792674.2414   20792674.0974   20792675.4554
     -1000.8114
 11 10  9  0  4  0.0000000  0  8G28G32G17G14G19G20G01G11
 -10218513.64148  -7894101.32847  21783168.9304   21783168.9694   21783169.6534
     -1591.1674
 -20731496.48848 -16084511.13848  20586804.9464   20586804.5344   20586807.2894
       868.1004
 -11107200.22147  -8579577.92247  22666448.3744   22666448.7244   22666450.6274
      3065.0084
  -5281609.14747  -4075323.69046  23528983.2724   23528981.7164   23528987.4324
      -921.4954
  -6754657.02547  -5181005.67846  23320181.6674   23320180.7944   23320182.1844
     -3428.0884
 -16001316.64948 -12408020.82447  21037968.5854   21037968.1064   21037970.0874
      1955.6324
 -11239566.49349  -8741570.44248  20262330.8194   20262330.4964   20262335.7254
      -303.9804
 -18415370.72748 -14278646.39648  20798412.9584   20798412.7194   20798414.0534
     -1010.7004
 11 10  9  0  4 30.0000000  0  8G28G32G17G14G19G20G01G11
 -10170482.64448  -7856674.56947  21792309.0854   21792308.9604   21792309.2974
     -1611.2164
 -20757258.85048 -16104585.70448  20581902.8804   20581902.4424   20581905.0594
       849.2214
 -11199038.25847  -8651140.01047  22648971.8834   22648971.8174   22648974.3454
      3057.0094
  -5253670.81347  -4053553.40846  23534300.0544   23534299.5204   23534302.9144
      -941.6794
  -6651704.22447  -5100782.82346  23339773.3974   23339771.7554   23339773.1324
     -3435.6804
 -16059771.30748 -12453569.91747  21026845.3604   21026844.6354   21026846.6174
      1941.0204
 -11230272.56149  -8734328.34048  20264099.2014   20264099.2484   20264104.1754
      -315.8674
 -18384888.37948 -14254893.95648  20804213.6234   20804213.7114   20804214.6084
     -1021.5344
 11 10  9  0  5  0.0000000  0  8G28G32G17G14G19G20G01G11
 -10121849.22248  -7818778.38347  21801563.6744   21801562.8334   21801563.6614
     -1631.6954
 -20782453.44548 -16124217.90848  20577108.4884   20577107.7874   20577110.8224
       829.7834
 -11290635.51547  -8722514.51747  22631541.3764   22631542.2854   22631543.6354
      3048.6734
  -5225119.65147  -4031305.88346  23539731.9554   23539731.4244   23539735.3084
      -962.3434
  -6548533.07747  -5020389.80546  23359406.7274   23359406.1234   23359406.5254
     -3443.3504
 -16117784.57048 -12498775.06747  21015805.9154   21015805.2144   21015806.2124
      1925.8814
 -11220617.35849  -8726804.81848  20265936.8084   20265936.5804   20265941.3354
      -328.5004
 -18354081.56748 -14230888.67048  20810076.1084   20810076.0684   20810077.3694
     -1032.7954
 11 10  9  0  5 30.0000000  0  8G28G32G17G14G19G20G01G11
 -10072616.15548  -7780414.97847  21810932.1534   21810931.4224   21810932.9784
     -1651.5034
 -20807080.25948 -16143407.68548  20572422.0104   20572421.5214   20572424.9364
       810.9474
 -11381989.85247  -8793699.72847  22614157.4654   22614158.0754   22614159.7904
      3040.4204
  -5195956.67347  -4008581.56646  23545281.7404   23545282.3324   23545284.5864
      -982.6354
  -6445145.54547  -4939828.18246  23379080.0904   23379079.8214   23379081.3944
     -3450.2754
 -16175355.77748 -12543635.75547  21004849.9994   21004849.8474   21004851.1184
      1911.2044
 -11210601.48549  -8719000.23148  20267842.6194   20267842.2744   20267847.5134
      -340.4844
 -18322950.82148 -14206630.96748  20816000.0584   20815999.9734   20816001.1954
     -1043.6494
 11 10  9  0  6  0.0000000  0  8G28G32G17G14G19G20G01G11
 -10022778.38148  -7741580.36747  21820416.2774   21820415.5584   21820416.5954
     -1670.7634
 -20831131.43148 -16162148.84048  20567845.1884   20567844.5484   20567847.3634
       792.4914
 -11473091.85347  -8864688.27847  22596821.8234   22596821.9704   22596823.4444
      3032.8854
  -5166175.48647  -3985375.41046  23550948.8504   23550948.3594   23550950.9924
     -1002.8494
  -6341536.04647  -4859093.60646  23398796.4394   23398795.5484   23398798.1674
     -3456.8734
 -16232476.65348 -12588145.51647  20993980.3524   20993980.3304   20993981.8144
      1896.9724
 -11200217.98849  -8710909.18048  20269818.3544   20269818.0654   20269823.4284
      -352.0064
 -18291489.10048 -14182115.35348  20821986.9114   20821986.8544   20821988.2654
     -1053.7884
 11 10  9  0  6 30.0000000  0  8G28G32G17G14G19G20G01G11
  -9972349.06248  -7702284.77947  21830012.4184   21830012.2354   21830013.1974
     -1691.1864
 -20854617.80048 -16180449.91448  20563375.7844   20563375.1654   20563378.4894
       773.2774
 -11563950.18447  -8935486.97147  22579532.0094   22579532.5664   22579532.9994
      3024.4464
  -5135788.43447  -3961697.06946  23556731.8494   23556731.5924   23556734.8414
     -1023.0844
  -6237717.06547  -4778195.79646  23418552.9694   23418553.0584   23418553.9444
     -3464.2644
 -16289157.26148 -12632312.25447  20983194.8674   20983194.1694   20983195.9084
      1881.8104
 -11189478.24849  -8702540.54448  20271862.1544   20271862.0274   20271867.0204
      -364.1064
 -18259707.74848 -14157350.64948  20828034.7834   20828034.7554   20828035.8204
     -1064.7024
 11 10  9  0  7  0.0000000  0  8G28G32G17G14G19G20G01G11
  -9921324.29847  -7662525.21247  21839721.9614   21839721.5354   21839723.2014
     -1711.2454
 -20877532.75248 -16198305.76348  20559015.5504   20559015.1214   20559017.7524
       753.7124
 -11654556.73747  -9006089.51347  22562290.7164   22562290.4164   22562291.8574
      3015.4004
  -5104790.46647  -3937542.86946  23562631.5634   23562629.7814   23562634.0984
     -1044.0924
  -6133683.99947  -4697131.15346  23438349.4294   23438349.5034   23438351.0814
     -3472.0484
 -16345390.77048 -12676130.62947  20972493.8824   20972492.9794   20972495.0194
      1866.2774
 -11178376.46149  -8693889.85348  20273974.8104   20273974.6654   20273979.5784
      -376.8214
 -18227600.65748 -14132332.18048  20834144.6234   20834144.7424   20834145.7734
     -1076.2624
 11 10  9  0  7 30.0000000  0  8G28G32G17G14G19G20G01G11
  -9869707.61247  -7622304.44147  21849544.3924   21849544.4464   21849544.6394
     -1731.0694
 -20899876.83248 -16215716.73048  20554763.7494   20554762.9964   20554765.7984
       734.5634
 -11744910.02747  -9076494.67747  22545096.4674   22545097.3054   22545098.4694
      3007.0434
  -5073183.02147  -3912913.73346  23568645.3654   23568644.6774   23568648.7624
     -1064.4954
  -6029439.66147  -4615901.88946  23458187.0444   23458186.6364   23458187.3464
     -3478.8344
 -16401176.29148 -12719599.88847  20961877.7874   20961876.9154   20961879.1204
      1851.3904
 -11166913.31249  -8684957.34948  20276155.9924   20276155.7814   20276160.8454
      -388.7664
 -18195168.91248 -14107060.71648  20840315.9934   20840315.9144   20840316.8914
     -1087.1284
 11 10  9  0  8  0.0000000  0  8G28G32G17G14G19G20G01G11
  -9817501.91548  -7581624.65147  21859478.6144   21859478.1924   21859479.3904
     -1750.4084
 -20921651.06248 -16232683.69348  20550619.7154   20550619.3014   20550622.1634
       715.8254
 -11835008.91547  -9146701.61447  22527950.9084   22527951.8454   22527953.5764
      2998.6074
  -5040968.91747  -3887811.98646  23574774.1324   23574775.3494   23574778.3084
     -1084.2444
  -5924986.94647  -4534510.24446  23478063.4524   23478062.7514   23478064.1704
     -3485.5114
 -16456514.68748 -12762720.73747  20951347.4984   20951347.7794   20951349.0954
      1836.7454
 -11155091.06949  -8675745.13648  20278405.6854   20278405.4544   20278410.5354
      -400.4004
 -18162414.14648 -14081537.55248  20846549.1024   20846549.0384   20846550.4414
     -1097.5944
 11 10  9  0  8 30.0000000  0  8G28G32G17G14G19G20G01G11
  -9764706.84247  -7540485.62547  21869524.9014   21869523.9784   21869526.2204
     -1769.2614
 -20942851.92948 -16249203.84348  20546585.7684   20546584.9944   20546588.2694
       697.4474
 -11924848.16647  -9216706.22547  22510855.8014   22510855.6314   22510857.9144
      2990.4214
  -5008146.19547  -3862236.27046  23581021.5494   23581021.2064   23581024.3784
     -1103.9984
  -5820324.28347  -4452955.02646  23497980.2564   23497979.5574   23497980.1254
     -3491.8694
 -16511401.71548 -12805489.86847  20940903.0394   20940902.4584   20940904.1644
      1822.3554
 -11142907.08949  -8666251.23648  20280724.3994   20280724.1004   20280728.8214
      -411.8804
 -18129333.16848 -14055760.17148  20852844.2774   20852844.2334   20852845.3644
     -1107.8134
 11 10  9  0  9  0.0000000  0  8G28G32G17G14G19G20G01G11
  -9711326.96247  -7498890.92247  21879683.1674   21879682.5334   21879684.3244
     -1788.8264
 -20963481.48348 -16265278.86748  20542660.0124   20542659.5034   20542662.7564
       678.3514
 -12014428.04047  -9286508.71847  22493808.5014   22493808.6754   22493810.4214
      2981.8104
  -4974717.47547  -3836188.11646  23587383.6334   23587384.7054   23587384.9724
     -1124.1564
  -5715455.62447  -4371239.30746  23517936.4514   23517935.3304   23517935.8144
     -3498.8734
 -16565838.49048 -12847908.20847  20930544.0144   20930543.2854   20930545.3014
      1807.3024
 -11130363.55549  -8656477.17748  20283111.4244   20283111.1774   20283116.1554
      -423.8704
 -18095928.61048 -14029730.63948  20859201.1814   20859200.7094   20859202.0254
     -1118.6994
 11 10  9  0  9 30.0000000  0  8G28G32G17G14G19G20G01G11
  -9657365.63947  -7456843.14147  21889951.6574   21889952.4964   21889952.6194
     -1808.6824
 -20983540.18648 -16280909.04848  20538842.7084   20538842.3994   20538845.5534
       658.6314
 -12103747.03147  -9356107.93047  22476811.7094   22476811.7864   22476813.7344
      2972.6114
  -4940684.78947  -3809669.29746  23593859.7384   23593859.4384   23593860.5434
     -1145.0014
  -5610383.55447  -4289365.09446  23537931.2184   23537929.6804   23537931.1794
     -3505.9744
 -16619825.36448 -12889975.95047  20920270.9524   20920269.7764   20920272.1794
      1791.5764
 -11117461.98649  -8646424.26548  20285566.4364   20285566.5544   20285571.5074
      -436.5144
 -18062201.71648 -14003449.95448  20865618.9964   20865618.8134   20865619.9644
     -1129.9864
 11 10  9  0 10  0.0000000  0  8G28G32G17G14G19G20G01G11
  -9602821.78848  -7414341.43147  21900331.2484   21900331.0384   21900331.1244
     -1827.9264
 -21003024.74348 -16296091.83748  20535135.6004   20535134.8494   20535137.5054
       639.8314
 -12192799.55647  -9425499.50047  22459865.3524   22459866.6784   22459867.2844
      2963.8474
  -4906046.18747  -3782678.06946  23600451.3644   23600450.4664   23600454.9524
     -1164.8174
  -5505106.61447  -4207331.22346  23557964.4654   23557963.5894   23557964.8504
     -3512.9024
 -16673357.99448 -12931689.75947  20910083.7404   20910083.2804   20910085.1544
      1776.6444
 -11104198.97849  -8636089.56148  20288090.5604   20288090.3154   20288095.7344
      -448.3404
 -18028149.38648 -13976915.67047  20872098.9844   20872098.9644   20872100.1154
     -1140.6684
 11 10  9  0 10 30.0000000  0  8G28G32G17G14G19G20G01G11
  -9547696.76248  -7371386.90047  21910820.6794   21910821.4874   21910821.7224
     -1847.4834
 -21021933.76048 -16310826.17548  20531536.8454   20531536.4724   20531539.2264
       620.5124
 -12281582.53847  -9494681.05847  22442970.9194   22442970.6874   22442973.5764
      2954.9984
  -4870802.41547  -3755215.27546  23607157.2254   23607157.5324   23607166.4274
     -1185.4174
  -5399625.17347  -4125137.99346  23578037.3084   23578036.3004   23578037.8024
     -3519.7154
 -16726434.48248 -12973048.15447  20899983.6344   20899984.0244   20899985.0174
      1761.3694
 -11090573.71649  -8625472.49948  20290683.4984   20290683.2624   20290688.3474
      -460.6354
 -17993770.48048 -13950126.93748  20878641.0804   20878640.7584   20878641.9164
     -1151.5984
 11 10  9  0 11  0.0000000  0  8G28G32G17G14G19G20G01G11
  -9492001.73647  -7327988.20047  21921419.1384   21921418.8304   21921420.5394
     -1866.3634
 -21040275.72748 -16325118.64748  20528046.6214   20528046.0024   20528048.9354
       601.7134
 -12370102.22547  -9563657.44147  22426125.5784   22426126.3884   22426128.6444
      2946.0204
  -4834961.52647  -3727286.97246  23613976.9764   23613977.4654   23613979.6304
     -1204.8524
  -5293949.74247  -4042793.60046  23598146.4114   23598144.7854   23598147.4494
     -3525.9154
 -16779062.23048 -13014056.87647  20889969.4224   20889968.4324   20889970.3514
      1746.3184
 -11076594.99249  -8614579.74448  20293343.3374   20293342.9474   20293348.1834
      -472.2884
 -17959074.21448 -13923090.94248  20885243.7104   20885243.7414   20885244.4064
     -1162.1964
 11 10  9  0 11 30.0000000  0  8G28G32G17G14G19G20G01G11
  -9435726.69547  -7284137.53547  21932128.0754   21932128.1304   21932128.4334
     -1885.6654
 -21058037.98848 -16338959.44048  20524666.7814   20524666.1224   20524669.1044
       582.3094
 -12458344.08147  -9632417.34947  22409334.4254   22409334.3214   22409336.0724
      2936.6144
  -4798514.08147  -3698885.99346  23620913.3784   23620911.5514   23620917.0084
     -1225.6034
  -5188069.57247  -3960289.67246  23618294.8234   23618294.2334   23618295.0584
     -3532.9754
 -16831227.91348 -13054705.48147  20880042.0424   20880041.8794   20880043.4104
      1730.9624
 -11062251.37249  -8603402.76748  20296072.7374   20296072.5944   20296077.4014
      -484.4054
 -17924048.02848 -13895797.86248  20891908.8414   20891908.3114   20891910.1464
     -1173.2724
 11 10  9  0 12  0.0000000  0  8G28G32G17G14G19G20G01G11
  -9378885.50547  -7239845.71447  21942944.7764   21942944.5004   21942945.7354
     -1903.5684
 -21075231.60048 -16352357.09748  20521394.5944   20521394.1184   20521397.3514
       564.2554
 -12546317.01447  -9700967.69947  22392593.3734   22392594.2694   22392595.1714
      2928.6214
  -4761472.59347  -3670022.43346  23627962.5094   23627961.6894   23627965.7544
     -1243.8514
  -5081997.67847  -3877636.36246  23638479.9144   23638478.5794   23638480.5704
     -3538.4044
 -16882942.41948 -13095002.55647  20870201.1954   20870200.9064   20870202.7624
      1716.8784
 -11047554.54049  -8591950.66648  20298869.4414   20298869.0954   20298874.3894
      -495.1544
 -17888703.57048 -13868256.75748  20898634.8124   20898634.3274   20898635.6444
     -1182.8954
 11 10  9  0 12 30.0000000  0  8G28G32G17G14G19G20G01G11
  -9321478.09047  -7195112.67347  21953869.1664   21953867.9284   21953870.0034
     -1923.6944
 -21091854.21848 -16365309.81548  20518231.7814   20518231.1674   20518234.3254
       543.9674
 -12634016.43247  -9769304.90447  22375905.5104   22375905.4534   22375906.4144
      2918.0584
  -4723836.21147  -3640695.46246  23635123.6804   23635123.2274   23635126.3744
     -1265.1394
  -4975733.27947  -3794833.06446  23658701.7394   23658700.1164   23658701.4494
     -3546.3014
 -16934202.13048 -13134945.18247  20860447.2404   20860446.3584   20860448.5544
      1700.4134
 -11032502.31449  -8580221.66248  20301733.7944   20301733.4044   20301738.4454
      -508.3544
 -17853038.63648 -13840465.91947  20905421.5484   20905421.5684   20905422.8274
     -1194.8224
 11 10  9  0 13  0.0000000  0  8G28G32G17G14G19G20G01G11
  -9263500.78147  -7149935.55047  21964901.4894   21964900.9934   21964902.3474
     -1942.6274
 -21107899.41248 -16377812.63548  20515178.3534   20515178.0954   20515181.3054
       524.7124
 -12721433.76048  -9837422.31047  22359270.3954   22359270.4274   22359272.1934
      2908.5664
  -4685599.06747  -3610900.34446  23642399.5414   23642400.0124   23642401.9034
     -1284.9124
  -4869271.77547  -3711876.15446  23678960.2434   23678959.0414   23678961.1684
     -3552.5554
 -16985000.26748 -13174528.24247  20850780.6774   20850780.1634   20850781.7104
      1685.0134
 -11017088.78349  -8568211.15648  20304666.9904   20304666.7854   20304671.7494
      -520.4284
 -17817047.32548 -13812420.73447  20912270.5864   20912270.1244   20912271.4024
     -1205.7034
 11 10  9  0 13 30.0000000  0  8G28G32G17G14G19G20G01G11
  -9204961.67347  -7104320.66847  21976041.0764   21976041.1434   21976042.8254
     -1960.7084
 -21123372.46548 -16389869.60748  20512233.9534   20512233.2684   20512236.5824
       506.1504
 -12808572.42247  -9905322.58047  22342688.2644   22342687.7974   22342689.9244
      2899.8084
  -4646768.35547  -3580642.70946  23649789.8134   23649789.4984   23649793.8104
     -1304.3684
  -4762620.49247  -3628771.37246  23699255.7674   23699254.4754   23699255.6114
     -3558.1534
 -17035341.18348 -13213754.98347  20841200.8404   20841200.5184   20841202.7114
      1670.2384
 -11001319.69249  -8555923.59748  20307667.7294   20307667.6274   20307672.6334
      -531.9814
 -17780735.37948 -13784125.71847  20919180.4214   20919180.3944   20919181.8294
     -1215.8114
 11 10  9  0 14  0.0000000  0  8G28G32G17G14G19G20G01G11
  -9145859.58747  -7058267.10947  21987287.9204   21987287.7414   21987289.0204
     -1979.2604
 -21138269.84848 -16401478.02048  20509399.2734   20509398.4504   20509401.8574
       487.3174
 -12895426.64747  -9973001.17847  22326160.3464   22326160.5214   22326162.9714
      2890.8474
  -4607341.58747  -3549920.59446  23657291.9914   23657292.2184   23657295.7884
     -1324.0184
  -4655777.64847  -3545517.32246  23719587.3754   23719586.6734   23719588.3834
     -3564.1854
 -17085220.72748 -13252622.23947  20831709.2004   20831708.6604   20831711.2194
      1655.1814
 -10985191.76749  -8543356.36448  20310736.6844   20310736.6294   20310741.4674
      -543.3214
 -17744099.30948 -13755578.12247  20926151.8404   20926152.0414   20926153.3184
     -1226.2814
 11 10  9  0 14 30.0000000  0  8G28G32G17G14G19G20G01G11
  -9086198.85247  -7011778.25347  21998641.4274   21998640.9774   21998641.5174
     -1998.4234
 -21152592.73549 -16412638.70648  20506673.7234   20506673.3474   20506676.2174
       467.5304
 -12981995.21847 -10040457.17047  22309686.5214   22309686.2754   22309688.8904
      2880.3504
  -4567321.80347  -3518736.34746  23664907.1864   23664907.6444   23664910.8754
     -1344.0264
  -4548746.36747  -3462116.44046  23739954.5564   23739954.2574   23739955.1114
     -3571.3014
 -17134639.21948 -13291130.18847  20822305.2684   20822304.7804   20822306.7404
      1639.1824
 -10968706.86749  -8530510.98448  20313873.5364   20313873.4704   20313878.4194
      -556.0664
 -17707140.92448 -13726779.39947  20933184.7624   20933184.9764   20933186.2584
     -1237.8354
 11 10  9  0 15  0.0000000  0  8G28G32G17G14G19G20G01G11
  -9025984.53847  -6964858.03847  22010099.3214   22010098.8764   22010100.2564
     -2016.2664
 -21166344.18149 -16423354.17748  20504056.8294   20504056.5394   20504059.3424
       448.9354
 -13068278.82547 -10107691.13747  22293267.6164   22293268.0794   22293270.2284
      2871.5364
  -4526713.02647  -3487093.20146  23672635.6564   23672634.9394   23672637.1194
     -1363.2714
  -4441530.78847  -3378571.96046  23760357.1904   23760356.2924   23760358.0284
     -3576.8214
 -17183598.74948 -13329280.48047  20812988.6574   20812988.1754   20812989.9224
      1624.3104
 -10951868.03249  -8517389.75948  20317077.8944   20317077.8464   20317082.7784
      -567.0184
 -17669863.21648 -13697731.85647  20940278.6314   20940278.4704   20940279.8424
     -1247.7644
 11 10  9  0 15 30.0000000  0  8G28G32G17G14G19G20G01G11
  -8965214.48947  -6917504.78547  22021663.2804   22021663.4894   22021664.6114
     -2034.7714
 -21179519.16749 -16433620.42848  20501549.6394   20501549.4374   20501552.4384
       429.5594
 -13154270.31347 -10174697.44147  22276903.4274   22276903.8774   22276905.4064
      2861.3654
  -4485511.97047  -3454988.45646  23680475.4194   23680475.8114   23680479.4454
     -1383.3364
  -4334128.22847  -3294881.77946  23780795.2414   23780795.6144   23780795.7114
     -3582.9764
 -17232094.24348 -13367069.24447  20803760.2784   20803759.9294   20803762.2094
      1608.7904
 -10934671.02849  -8503989.47748  20320350.3724   20320350.6114   20320355.2844
      -579.2614
 -17632261.64248 -13668431.96047  20947433.9274   20947433.7544   20947434.9764
     -1258.6404
 11 10  9  0 16  0.0000000  0  8G28G32G17G14G19G20G01G11
  -8903894.30747  -6869722.85147  22033332.8394   22033331.5874   22033333.4624
     -2053.3174
 -21192120.57748 -16443439.74648  20499151.9194   20499151.4324   20499154.5464
       410.2024
 -13239970.42047 -10241476.65847  22260595.3704   22260596.1084   22260597.6624
      2851.6214
  -4443722.87547  -3422425.53446  23688426.7494   23688427.5524   23688430.8804
     -1402.8214
  -4226543.16747  -3211049.37246  23801268.5054   23801266.8664   23801268.1934
     -3589.2524
 -17280127.12648 -13404497.46347  20794619.6544   20794619.4964   20794621.3904
      1593.2474
 -10917118.98149  -8490312.54648  20323690.3724   20323690.2784   20323695.1594
      -591.1954
 -17594339.20648 -13638882.02347  20954650.3314   20954650.2194   20954652.0124
     -1269.5814
 11 10  9  0 16 30.0000000  0  8G28G32G17G14G19G20G01G11
  -8842026.02747  -6821513.80547  22045106.2204   22045104.8304   22045106.8764
     -2071.2974
 -21204147.85749 -16452811.68048  20496863.2044   20496862.7914   20496865.7204
       391.3804
 -13325376.31147 -10308026.64847  22244343.9194   22244343.9174   22244345.5894
      2841.8224
  -4401346.53447  -3389404.97846  23696492.5874   23696491.6754   23696493.8134
     -1422.3624
  -4118776.78847  -3127075.68046  23821775.3764   23821774.4904   23821775.7024
     -3595.1964
 -17327696.32948 -13441564.42147  20785567.9264   20785567.3374   20785569.3734
      1577.9194
 -10899211.66749  -8476358.81148  20327098.2104   20327097.9464   20327103.0124
      -602.9824
 -17556095.76648 -13609081.93947  20961927.7474   20961927.9264   20961929.3864
     -1280.1604
 11 10  9  0 17  0.0000000  0  8G28G32G17G14G19G20G01G11
  -8779613.74647  -6772880.86447  22056982.2194   22056981.8324   22056983.4114
     -2089.5444
 -21215602.66349 -16461737.52248  20494683.4214   20494683.1904   20494686.0054
       372.3064
 -13410487.50847 -10374347.03747  22228147.7684   22228147.3284   22228149.8794
      2831.9114
  -4358386.75247  -3355930.08546  23704667.5504   23704668.3844   23704670.6024
     -1442.2894
  -4010832.33647  -3042963.23846  23842316.6234   23842315.3034   23842317.0024
     -3601.3514
 -17374802.70248 -13478270.67447  20776603.7474   20776603.4034   20776605.2414
      1562.5004
 -10880951.28849  -8462130.05148  20330573.1254   20330572.9324   20330578.0014
      -614.7304
 -17517533.16048 -13579033.17247  20969266.2934   20969266.0324   20969267.1614
     -1290.7494
 11 10  9  0 17 30.0000000  0  8G28G32G17G14G19G20G01G11
  -8716659.09147  -6723825.31947  22068962.0854   22068961.9834   22068962.8024
     -2107.6874
 -21226483.82249 -16470216.33748  20492612.7294   20492612.3994   20492615.3304
       352.8194
 -13495300.23948 -10440434.87347  22212008.2354   22212008.0594   22212009.6814
      2821.9274
  -4314843.47447  -3322000.44446  23712951.6144   23712951.8334   23712955.9724
     -1461.3394
  -3902710.42747  -2958712.51246  23862891.2534   23862889.9624   23862892.1184
     -3607.2314
 -17421444.54548 -13514614.99447  20767728.0684   20767727.6814   20767729.5124
      1546.6964
 -10862336.65049  -8447625.16448  20334115.2554   20334115.1054   20334120.3724
      -626.6174
 -17478650.23748 -13548734.80747  20976665.3974   20976664.8424   20976666.5224
     -1301.7284
 11 10  9  0 18  0.0000000  0  8G28G32G17G14G19G20G01G11
  -8653162.12647  -6674347.21747  22081045.1214   22081045.5904   22081046.3384
     -2125.4934
 -21236788.52149 -16478245.97048  20490651.9924   20490651.6044   20490654.4644
       333.9084
 -13579809.39748 -10506286.13447  22195926.9754   22195926.4884   22195928.3314
      2812.0334
  -4270714.90047  -3287614.76046  23721351.3344   23721351.3964   23721353.6054
     -1480.2204
  -3794409.77447  -2874322.51746  23883500.8374   23883500.2224   23883502.7814
     -3612.9234
 -17467617.80548 -13550594.20847  20758941.7394   20758940.9264   20758943.3424
      1531.5224
 -10843365.34449  -8432842.36148  20337725.3094   20337725.1944   20337730.2534
      -638.1524
 -17439444.39048 -13518184.83347  20984126.2254   20984126.2034   20984127.1404
     -1312.1214
 11 10  9  0 18 30.0000000  0  8G28G32G17G14G19G20G01G11
  -8589128.77047  -6624451.13147  22093230.4694   22093230.3424   22093231.0774
     -2143.3864
 -21246520.52449 -16485829.33548  20488799.9364   20488799.5524   20488802.7754
       314.7744
 -13664016.35848 -10571901.94547  22179902.9264   22179901.9894   22179904.1764
      2801.8844
  -4226006.26447  -3252776.95046  23729858.3564   23729859.2924   23729862.9764
     -1499.7834
  -3685936.10847  -2789797.71846  23904142.8614   23904142.6014   23904143.8084
     -3618.7104
 -17513325.72648 -13586210.89347  20750243.7424   20750243.2884   20750245.5004
      1515.7154
 -10824041.41849  -8417784.81748  20341402.8384   20341402.5274   20341407.4214
      -650.1804
 -17399919.66248 -13487386.37947  20991647.2014   20991646.8624   20991648.7054
     -1322.8714
 11 10  9  0 19  0.0000000  0  8G28G32G17G14G19G20G01G11
  -8524559.66647  -6574137.57347  22105517.5144   22105516.8064   22105518.1714
     -2161.1184
 -21255677.61449 -16492964.71848  20487057.6104   20487056.8564   20487060.0714
       295.7864
 -13747916.64148 -10637278.79447  22163936.8984   22163937.4544   22163938.3464
      2791.5864
  -4180716.48947  -3217486.11846  23738475.8404   23738475.0554   23738477.6284
     -1519.0484
  -3577288.47747  -2705137.35946  23924817.8864   23924816.9894   23924819.4354
     -3624.4184
 -17558565.54148 -13621462.71147  20741635.2764   20741634.6494   20741636.6314
      1500.3294
 -10804362.90449  -8402450.95548  20345147.6344   20345147.5624   20345152.2694
      -661.7464
 -17360073.92148 -13456337.77047  20999229.6214   20999229.7534   20999231.0364
     -1333.4834
 11 10  9  0 19 30.0000000  0  8G28G32G17G14G19G20G01G11
  -8459458.17147  -6523409.16847  22117906.6004   22117906.2054   22117907.2114
     -2178.6584
 -21264260.82249 -16499652.98048  20485424.0424   20485423.8464   20485426.7154
       276.7584
 -13831508.44948 -10702415.29147  22148029.6994   22148029.6124   22148032.4794
      2781.3174
  -4134848.51747  -3181744.70446  23747206.3974   23747206.1204   23747207.6534
     -1538.5914
  -3468469.57947  -2620343.54146  23945525.4394   23945524.3284   23945527.3484
     -3630.0104
 -17603337.04848 -13656349.63647  20733115.3644   20733114.8224   20733116.7414
      1484.8454
 -10784330.73649  -8386841.44848  20348959.3274   20348959.0274   20348964.3214
      -673.5304
 -17319907.96648 -13425039.65947  21006872.8384   21006872.6394   21006874.4944
     -1344.0874
 11 10  9  0 20  0.0000000  0  8G28G32G17G14G19G20G01G11
  -8393827.82147  -6472268.66247  22130395.0284   22130394.9764   22130395.5974
     -2196.9834
 -21272271.11948 -16505894.83948  20483900.0284   20483899.4074   20483902.3654
       257.1204
 -13914790.79148 -10767310.65047  22132181.9514   22132182.2254   22132183.6064
      2770.4354
  -4088404.53747  -3145554.33146  23756043.2194   23756044.7644   23756047.0864
     -1558.0434
  -3359482.08247  -2535418.35446  23966264.7484   23966264.6884   23966265.9944
     -3636.0774
 -17647640.64648 -13690872.00647  20724684.6914   20724683.9674   20724686.5784
      1468.4834
 -10763946.56749  -8370957.74548  20352838.3744   20352838.0854   20352843.4054
      -685.8754
 -17279423.40248 -13393493.26347  21014577.0794   21014576.6304   21014578.3694
     -1355.3034
 11 10  9  0 20 30.0000000  0  8G28G32G17G14G19G20G01G11
  -8327672.70247  -6420719.23647  22142984.0404   22142983.3004   22142984.6824
     -2213.9894
 -21279709.60649 -16511691.01748  20482484.2944   20482484.0474   20482486.7364
       238.4154
 -13997762.32648 -10831963.75847  22116393.1024   22116393.0164   22116393.7894
      2760.7134
  -4041388.29747  -3108918.56246  23764988.3934   23764988.2414   23764994.3664
     -1576.8364
  -3250328.59547  -2450363.79846  23987036.3534   23987035.4054   23987037.4924
     -3641.1424
 -17691476.78548 -13725030.14747  20716342.9594   20716342.2154   20716344.9904
      1453.4824
 -10743211.61249  -8354800.67948  20356784.1274   20356784.1114   20356789.2474
      -696.9674
 -17238621.47848 -13361699.57247  21022341.1774   21022341.0814   21022342.3404
     -1365.2584
 11 10  9  0 21  0.0000000  0  8G28G32G17G14G19G20G01G11
  -8260991.22847  -6368759.66447  22155672.8464   22155672.6344   22155673.5944
     -2230.9154
 -21286572.13449 -16517038.43148  20481178.6574   20481178.0014   20481180.8284
       219.4564
 -14080415.81148 -10896369.06547  22100664.3414   22100664.0934   22100666.7464
      2750.2364
  -3993795.66947  -3071833.29946  23774046.5684   23774046.5904   23774049.8274
     -1595.6424
  -3141006.52847  -2365177.91646  24007840.0994   24007838.0684   24007840.0994
     -3646.5084
 -17734840.27748 -13758819.97947  20708091.4444   20708090.8374   20708092.7864
      1437.9424
 -10722121.87249  -8338367.18548  20360797.5954   20360797.5574   20360802.6834
      -708.6504
 -17197497.68648 -13329655.07447  21030167.0374   21030166.7224   21030168.1804
     -1375.7614
 11 10  9  0 21 30.0000000  0  8G28G32G17G14G19G20G01G11
  -8193788.87347  -6316394.21947  22168461.4024   22168460.9684   22168462.7604
     -2248.8044
 -21292861.63249 -16521939.34548  20479981.6174   20479980.8554   20479984.0374
       200.0734
 -14162751.74948 -10960526.94747  22084996.2544   22084995.9504   22084998.0334
      2739.2304
  -3945632.04447  -3034303.53746  23783211.7084   23783211.3044   23783214.8284
     -1614.7874
  -3031520.38647  -2279864.17846  24028673.9724   24028673.9044   24028675.4234
     -3652.3224
 -17777733.16248 -13792243.10547  20699929.4664   20699928.8784   20699931.2914
      1421.9044
 -10700680.39349  -8321659.63748  20364877.9294   20364877.8564   20364882.6954
      -720.6894
 -17156055.34248 -13297362.34747  21038053.1854   21038052.9014   21038054.4834
     -1386.6924
 11 10  9  0 22  0.0000000  0  8G28G32G17G14G19G20G01G11
  -8126068.01047  -6263624.73547  22181347.8794   22181347.6234   22181349.7564
     -2265.8944
 -21298577.98949 -16526393.62848  20478893.9314   20478893.1754   20478896.3174
       180.9824
 -14244767.93348 -11024435.66247  22069389.2524   22069389.2004   22069391.2844
      2728.6694
  -3896898.39847  -2996329.49346  23792485.4504   23792484.6514   23792487.5354
     -1633.8814
  -2921871.48246  -2194423.60046  24049539.7924   24049539.2154   24049542.2004
     -3657.7254
 -17820154.56648 -13825298.79547  20691856.4174   20691856.0134   20691858.1454
      1406.1714
 -10678887.19749  -8304677.98348  20369024.9534   20369024.7824   20369029.8704
      -732.2654
 -17114294.30448 -13264821.29147  21046000.0624   21046000.0164   21046001.6424
     -1397.3374
 11 10  9  0 22 30.0000000  0  8G28G32G17G14G19G20G01G11
  -8057833.36947  -6210454.92147  22194332.9214   22194331.4884   22194334.2414
     -2282.8974
 -21303723.49049 -16530403.12548  20477914.6284   20477914.2544   20477917.2114
       162.1984
 -14326464.13548 -11088095.04547  22053843.0014   22053843.3324   22053845.2244
      2717.9034
  -3847596.94447  -2957912.34846  23801866.9394   23801868.3894   23801868.9854
     -1652.8674
  -2812063.93447  -2108859.41946  24070436.0634   24070435.3554   24070437.6204
     -3662.4824
 -17862105.87948 -13857988.17347  20683873.6704   20683873.0434   20683875.3264
      1390.7274
 -10656744.53249  -8287423.96648  20373238.5884   20373238.2474   20373243.5694
      -743.9794
 -17072216.78048 -13232033.63547  21054007.2874   21054007.4174   21054008.0934
     -1407.5744
 11 10  9  0 23  0.0000000  0  8G28G32G17G14G19G20G01G11
  -7989084.49447  -6156884.40647  22207415.6634   22207415.2374   22207415.9174
     -2300.7774
 -21308295.04949 -16533965.37648  20477044.6494   20477044.4244   20477047.2654
       142.3134
 -14407834.65248 -11151500.65847  22038358.8234   22038358.6484   22038360.3784
      2706.3584
  -3797728.49647  -2919053.78746  23811357.4574   23811355.5044   23811363.5624
     -1671.9364
  -2702095.77246  -2023170.09246  24091361.7994   24091360.4664   24091362.5544
     -3668.7684
 -17903583.21548 -13890308.19747  20675980.6954   20675979.8804   20675982.3434
      1374.1514
 -10634249.62649  -8269895.46548  20377519.1314   20377519.0634   20377524.1354
      -756.2214
 -17029819.94848 -13198997.15547  21062074.9784   21062075.1304   21062076.6094
     -1419.0434
 11 10  9  0 23 30.0000000  0  8G28G32G17G14G19G20G01G11
  -7919826.18547  -6102916.93346  22220594.6734   22220594.9534   22220595.5544
     -2317.6924
 -21312294.47649 -16537081.78648  20476283.5344   20476283.1164   20476285.9764
       123.2974
 -14488878.26048 -11214651.52647  22022936.2374   22022936.7234   22022937.7504
      2695.4774
  -3747294.98647  -2879754.99046  23820952.6544   23820951.7014   23820955.2204
     -1690.9534
  -2591970.41846  -1937358.26646  24112318.0764   24112316.9544   24112321.1904
     -3673.8694
 -17944587.52548 -13922259.60647  20668177.8024   20668177.2214   20668179.7364
      1358.5774
 -10611404.42849  -8252094.01948  20381866.3504   20381866.2904   20381871.3874
      -767.8274
 -16987105.41548 -13165713.10747  21070203.4274   21070203.1504   21070204.8744
     -1429.5544
 11 10  9  0 24  0.0000000  0  8G28G32G17G14G19G20G01G11
  -7850062.17847  -6048555.40846  22233870.1174   22233870.1954   22233871.0114
     -2334.8694
 -21315723.27049 -16539753.51148  20475631.3124   20475630.8164   20475633.5944
       103.7154
 -14569594.31448 -11277547.15547  22007576.5074   22007577.1714   22007578.6784
      2684.1594
  -3696300.27947  -2840018.72346  23830657.6504   23830655.0714   23830663.9704
     -1710.0034
  -2481690.90446  -1851426.34446  24133304.0534   24133303.6194   24133306.1234
     -3679.5744
 -17985119.82448 -13953843.25447  20660464.8774   20660464.5354   20660466.5874
      1342.2504
 -10588210.68849  -8234021.03948  20386280.0784   20386279.7174   20386284.8404
      -779.8254
 -16944074.86148 -13132182.81347  21078391.7684   21078391.9044   21078393.4744
     -1440.5614
 11 10  9  0 24 30.0000000  0  8G28G32G17G14G19G20G01G11
  -7779793.19947  -5993800.40246  22247242.0604   22247242.6134   22247243.0674
     -2350.6544
 -21318579.62649 -16541979.16248  20475087.5134   20475086.7744   20475089.9074
        85.8604
 -14649978.32048 -11340184.01347  21992280.0404   21992279.9814   21992282.4854
      2674.0164
  -3644743.49447  -2799844.85346  23840470.0294   23840470.0574   23840472.2914
     -1727.6004
  -2371256.83046  -1765373.96246  24154318.9154   24154317.6214   24154320.2154
     -3683.3484
 -18025176.96048 -13985056.65847  20652842.4374   20652841.8564   20652844.0114
      1327.4874
 -10564666.34049  -8215674.84148  20390760.4284   20390760.3394   20390765.4754
      -790.4614
 -16900726.23848 -13098404.69247  21086640.6964   21086640.3944   21086642.2544
     -1450.0614
 11 10  9  0 25  0.0000000  0  9G23G28G32G17G14G19G20G01G11
   -297696.60546   -170169.25845  24868501.2804   24868503.6374   24868505.1834
      3768.9214
  -7709022.98247  -5938654.83046  22260709.3864   22260709.3414   22260710.0604
     -2367.3124
 -21320864.51449 -16543759.56248  20474652.6874   20474652.0924   20474655.3784
        66.8114
 -14730028.41748 -11402560.70247  21977046.4214   21977046.9644   21977048.1574
      2662.7644
  -3592627.29547  -2759234.92446  23850385.6414   23850386.0204   23850389.5554
     -1746.6144
  -2260670.51347  -1679202.96946  24175363.1644   24175362.0334   24175363.4154
     -3689.0294
 -18064759.25248 -14015900.09247  20645310.2754   20645309.4764   20645311.9764
      1311.6944
 -10540772.62449  -8197056.51448  20395307.3924   20395307.3954   20395312.3744
      -802.2454
 -16857060.15648 -13064379.17147  21094950.2034   21094950.2864   21094951.2994
     -1460.6284
 11 10  9  0 25 30.0000000  0  9G23G28G32G17G14G19G20G01G11
   -410788.95446   -258293.17545  24846980.7734   24846977.2984   24846980.4604
      3770.3494
  -7637754.32847  -5883120.84546  22274271.3514   22274270.8424   22274272.3424
     -2383.8564
 -21322578.53749 -16545095.16148  20474326.4344   20474326.0434   20474328.8214
        47.6764
 -14809742.57248 -11464675.62247  21961878.1194   21961877.4914   21961880.0364
      2651.5024
  -3539952.82947  -2718189.67846  23860409.5774   23860409.0864   23860413.3624
     -1765.3324
  -2149933.94046  -1592914.88646  24196435.5644   24196434.5194   24196436.2254
     -3693.7574
 -18103866.38148 -14046373.18347  20637868.1914   20637867.6624   20637869.6424
      1295.7044
 -10516529.77549  -8178166.03548  20399920.8054   20399920.5814   20399925.8854
      -813.8414
 -16813077.63348 -13030107.10047  21103319.9594   21103319.8604   21103321.2044
     -1471.3154
 11 10  9  0 26  0.0000000  0  8G28G32G17G14G19G20G01G11
  -7565990.72447  -5827201.20346  22287927.8754   22287927.6944   22287928.6424
     -2400.5874
 -21323722.45449 -16545986.59548  20474108.9264   20474108.3004   20474111.2614
        28.3574
 -14889118.71748 -11526527.16847  21946773.1234   21946772.8044   21946774.8074
      2639.9274
  -3486722.92647  -2676711.69346  23870540.4784   23870539.5824   23870541.3534
     -1783.2394
  -2039049.05546  -1506511.21146  24217535.4514   24217535.8514   24217538.6234
     -3698.9254
 -18142498.08948 -14076475.83447  20630516.9694   20630516.3804   20630518.6764
      1279.7524
 -10491938.58149  -8159004.10048  20404600.3994   20404600.1084   20404605.2714
      -825.7514
 -16768778.89748 -12995588.61247  21111749.6154   21111749.9914   21111750.7434
     -1482.0574
 11 10  9  0 26 30.0000000  0  9G23G28G32G17G14G19G20G01G11
  -2212494.46946  -1662219.63445  24803920.8544   24803922.8014   24803920.5784
      3772.3774
  -7493734.64347  -5770897.80746  22301677.6454   22301677.7294   22301678.5134
     -2417.1394
 -21324296.14649 -16546433.72448  20473999.7764   20473999.5204   20474002.3304
         9.2174
 -14968154.34448 -11588113.37047  21931732.8874   21931733.1854   21931735.1374
      2628.5124
  -3432939.27147  -2634802.35746  23880772.6274   23880772.9604   23880776.8874
     -1802.5854
  -1928017.40147  -1419993.19646  24238665.5574   24238664.0854   24238666.3944
     -3703.1804
 -18180653.62148 -14106207.46247  20623256.1254   20623256.1594   20623257.5924
      1263.5354
 -10466998.99749  -8139570.64148  20409345.9114   20409345.9564   20409351.3244
      -837.4184
 -16724163.88848 -12960823.64047  21120239.4554   21120238.7644   21120240.9964
     -1492.8284
 11 10  9  0 27  0.0000000  0  9G23G28G32G17G14G19G20G01G11
  -2325682.53746  -1750418.10445  24782381.3714   24782381.4424   24782383.9624
      3772.9384
  -7420989.62347  -5714213.41746  22315520.9484   22315520.6264   22315521.4044
     -2433.2944
 -21324300.37849 -16546437.01148  20473998.9344   20473998.2334   20474001.2794
        -9.6794
 -15046847.58048 -11649432.77447  21916758.4164   21916758.1974   21916759.8824
      2617.0274
  -3378603.91647  -2592463.25246  23891113.3634   23891114.3174   23891114.3854
     -1820.4124
  -1816841.15547  -1333362.51546  24259822.6414   24259820.4864   24259821.7204
     -3708.5924
 -18218332.92148 -14135567.97247  20616086.1794   20616085.3114   20616087.7594
      1247.5984
 -10441712.11149  -8119866.61848  20414158.2464   20414157.9374   20414163.2144
      -849.1924
 -16679233.56248 -12925812.98947  21128789.4904   21128789.6864   21128790.9004
     -1503.2804
 11 10  9  0 27 30.0000000  0  9G23G28G32G17G14G19G20G01G11
  -2438897.08546  -1838637.18645  24760835.1084   24760834.2464   24760838.1204
      3774.6424
  -7347758.62247  -5657150.34146  22329455.9724   22329455.5974   22329457.7084
     -2449.1274
 -21323735.85749 -16545997.14948  20474106.5834   20474106.5514   20474108.9064
       -28.2854
 -15125195.83948 -11710483.35447  21901848.9804   21901848.9704   21901851.5594
      2605.8684
  -3323719.26147  -2549696.05246  23901559.2854   23901558.9464   23901560.1394
     -1838.5754
  -1705522.28746  -1246620.68646  24281004.3134   24281003.4784   24281006.0624
     -3712.9534
 -18255535.47948 -14164556.96547  20609006.9344   20609006.2004   20609008.1194
      1232.1724
 -10416078.45849  -8099892.46248  20419036.2454   20419036.0104   20419041.3234
      -860.3054
 -16633988.36248 -12890556.98147  21137399.1964   21137398.9954   21137400.6694
     -1513.3874
 11 10  9  0 28  0.0000000  0  9G23G28G32G17G14G19G20G01G11
  -2552134.13146  -1926873.91145  24739289.6204   24739288.8764   24739289.8974
      3774.8994
  -7274043.27747  -5599709.87846  22343483.8744   22343482.7824   22343485.1334
     -2465.4314
 -21322601.72749 -16545113.45848  20474322.2514   20474321.7904   20474324.8964
       -47.4254
 -15203195.64748 -11771262.40747  21887006.1794   21887006.6074   21887008.0324
      2593.9244
  -3268285.79146  -2506501.41146  23912105.9154   23912104.9364   23912109.8274
     -1856.7484
  -1594061.42546  -1159768.18946  24302215.4904   24302214.1604   24302217.6444
     -3718.0814
 -18292259.81648 -14193173.40847  20602018.3914   20602017.9924   20602020.1714
      1216.1274
 -10390096.95049  -8079647.22248  20423980.3184   20423980.1224   20423985.5444
      -871.9944
 -16588427.28048 -12855054.86847  21146069.3574   21146069.0294   21146071.0434
     -1524.1234
 11 10  9  0 28 30.0000000  0  9G23G28G32G17G14G19G20G01G11
  -2665392.52446  -2015127.18845  24717738.1994   24717738.7024   24717737.4914
      3775.5224
  -7199848.65547  -5541895.93446  22357602.5514   22357601.9084   22357604.2884
     -2481.1284
 -21320900.17649 -16543787.55348  20474645.9424   20474645.6194   20474648.2304
       -66.3604
 -15280846.90448 -11831769.86347  21872229.8554   21872229.6654   21872230.9984
      2582.4114
  -3212306.22846  -2462880.79146  23922758.6484   23922759.6354   23922760.7384
     -1875.0364
  -1482462.11147  -1072807.84346  24323452.1774   24323451.3484   24323453.5794
     -3722.3284
 -18328507.29148 -14221418.21548  20595120.9134   20595120.0494   20595122.5194
      1200.2924
 -10363769.94149  -8059132.76548  20428990.3094   20428990.0014   20428995.4514
      -883.3524
 -16542552.48048 -12819308.31447  21154799.0974   21154799.2964   21154800.2334
     -1534.3124
 11 10  9  0 29  0.0000000  0  9G23G28G32G17G14G19G20G01G11
  -2778665.64046  -2103391.98345  24696181.9384   24696184.4774   24696180.4004
      3776.4554
  -7125173.42547  -5483707.47346  22371812.4334   22371812.1214   22371813.2744
     -2496.9344
 -21318627.67549 -16542016.74148  20475078.5854   20475077.7934   20475081.3964
       -85.0434
 -15358142.90548 -11892000.47247  21857520.7014   21857521.1154   21857523.1654
      2570.9624
  -3155779.71747  -2418833.93746  23933516.0364   23933515.9744   23933520.4144
     -1892.7844
  -1370721.85346   -985737.66546  24344715.7094   24344713.1194   24344717.1224
     -3726.7544
 -18364273.57848 -14249288.10647  20588314.6164   20588314.2224   20588316.0424
      1184.4124
 -10337093.63349  -8038346.12148  20434066.6864   20434066.4034   20434071.7604
      -894.7864
 -16496360.16848 -12783314.31147  21163589.1244   21163589.0194   21163590.6764
     -1544.8574
 11 10  9  0 29 30.0000000  0  9G23G28G32G17G14G19G20G01G11
  -2891952.74046  -2191667.67345  24674624.7724   24674624.3414   24674627.5234
      3775.7534
  -7050023.14547  -5425148.84046  22386113.4684   22386113.2124   22386113.9214
     -2513.0654
 -21315787.48049 -16539803.64448  20475619.0204   20475618.7764   20475621.5874
      -104.2934
 -15435084.21148 -11951954.73047  21842879.1724   21842879.5994   21842881.0534
      2558.5714
  -3098710.65746  -2374364.60246  23944374.9194   23944373.4964   23944378.7634
     -1911.4974
  -1258845.15446   -898561.18146  24366005.2834   24366005.2304   24366006.7154
     -3731.6524
 -18399560.57948 -14276784.50347  20581599.8424   20581599.5794   20581601.3234
      1168.0534
 -10310070.93349  -8017289.53748  20439208.9314   20439208.6804   20439213.9154
      -906.8604
 -16449853.17548 -12747075.09147  21172439.3104   21172439.4324   21172440.7104
     -1555.6754
 11 10  9  0 30  0.0000000  0  9G23G28G32G17G14G19G20G01G11
  -3005254.00846  -2279954.35045  24653064.1884   24653062.9334   24653066.9704
      3776.4964
  -6974403.82147  -5366224.72946  22400503.7244   22400503.1594   22400503.1434
     -2528.9094
 -21312382.98549 -16537150.82448  20476266.9864   20476266.2874   20476269.5814
      -123.2914
 -15511671.31048 -12011632.98947  21828305.2674   21828305.4964   21828307.5294
      2546.6254
  -3041104.10346  -2329476.60546  23955337.8284   23955336.1674   23955342.3224
     -1929.4554
  -1146836.63247   -811282.00146  24387321.1554   24387319.8054   24387320.4284
     -3736.2144
 -18434371.20948 -14303909.78947  20574975.6614   20574975.0654   20574976.9674
      1152.0974
 -10282705.33349  -7995965.77548  20444416.5454   20444416.4024   20444421.8314
      -918.3184
 -16403035.04948 -12710593.45147  21181348.4284   21181348.4804   21181349.6824
     -1566.0994
 11 10  9  0 30 30.0000000  0  9G23G28G32G17G14G19G20G01G11
  -3118565.67346  -2368249.15345  24631499.1054   24631499.2984   24631501.5384
      3777.6854
  -6898317.92747  -5306937.06146  22414982.1904   22414981.1754   22414982.5554
     -2544.1154
 -21308413.91249 -16534058.03248  20477022.0664   20477021.8274   20477024.7454
      -141.8384
 -15587901.00748 -12071032.74847  21813799.1034   21813797.9634   21813801.3604
      2534.6594
  -2982960.55146  -2284169.92045  23966401.4984   23966399.4564   23966403.7974
     -1947.0094
  -1034697.43846   -723900.99346  24408658.4294   24408657.7454   24408659.8634
     -3740.4214
 -18468703.84448 -14330662.50147  20568442.2414   20568441.7974   20568444.3454
      1136.3374
 -10254996.43949  -7974374.48348  20449689.3964   20449689.4074   20449694.6254
      -929.6964
 -16355904.99048 -12673868.74347  21190316.9404   21190316.6034   21190318.5274
     -1576.3674
 11 10  9  0 31  0.0000000  0  9G23G28G32G17G14G19G20G01G11
  -3231878.30946  -2456544.72845  24609939.3224   24609938.4314   24609938.5094
      3776.7814
  -6821761.53147  -5247282.77546  22429549.9874   22429549.9494   22429551.3354
     -2560.0764
 -21303873.96949 -16530520.47348  20477886.3004   20477885.3694   20477888.6294
      -161.1954
 -15663763.94548 -12130146.69347  21799362.9874   21799362.5744   21799364.6724
      2522.3174
  -2924274.94746  -2238440.63745  23977568.5744   23977572.5444   23977570.6304
     -1966.0114
   -922422.39146   -636414.09546  24430023.6504   24430022.7494   24430026.4474
     -3745.2074
 -18502551.52048 -14357037.32748  20562001.4794   20562000.6504   20562003.1074
      1119.8024
 -10226937.74849  -7952510.68048  20455028.7344   20455028.7684   20455034.2604
      -941.6324
 -16308456.39948 -12636895.83447  21199346.1924   21199346.0904   21199347.3784
     -1587.3084
 11 10  9  0 31 30.0000000  0  9G23G28G32G17G14G19G20G01G11
  -3345197.32846  -2544845.25845  24588374.1304   24588374.2714   24588374.2184
      3777.1024
  -6744746.17047  -5187270.83946  22444205.5144   22444204.4394   22444207.4134
     -2575.5494
 -21298772.24449 -16526545.19948  20478856.8224   20478856.3904   20478859.3844
      -180.0424
 -15739266.58148 -12188979.88647  21784994.8644   21784995.2764   21784996.5154
      2510.1064
  -2865058.03746  -2192297.22646  23988837.8174   23988837.5574   23988840.7214
     -1983.3134
   -810021.68847   -548829.31346  24451414.9874   24451412.9444   24451415.6364
     -3749.3704
 -18535922.38548 -14383040.61247  20555651.0004   20555650.4514   20555653.3544
      1103.8694
 -10198538.28549  -7930381.43748  20460433.2994   20460433.1764   20460438.7614
      -952.9384
 -16260698.33948 -12599681.78547  21208434.2644   21208434.1234   21208435.6664
     -1597.6724
 11 10  9  0 32  0.0000000  0  9G23G28G32G17G14G19G20G01G11
  -3458518.19146  -2633147.20945  24566808.8074   24566809.4464   24566811.7484
      3777.4734
  -6667273.26547  -5126902.38746  22458948.5554   22458947.0304   22458949.1444
     -2590.4924
 -21293107.69249 -16522131.31048  20479935.1094   20479934.7244   20479937.4814
      -198.9934
 -15814405.00048 -12247529.28247  21770696.6944   21770696.8074   21770698.5334
      2497.8864
  -2805311.57146  -2145741.40546  24000207.1174   24000207.9854   24000210.4854
     -2000.7744
   -697495.73947   -461146.92046  24472827.5674   24472827.2314   24472829.5774
     -3753.6884
 -18568814.44448 -14408670.83447  20549392.3194   20549391.4104   20549393.8724
      1087.6264
 -10169796.37249  -7907985.16348  20465902.6944   20465902.4304   20465907.8654
      -964.5354
 -16212629.51348 -12562225.60047  21217581.3924   21217581.3764   21217583.1284
     -1608.1574
 11 10  9  0 32 30.0000000  0  9G23G28G32G17G14G19G20G01G11
  -3571834.16846  -2721445.35545  24545247.7734   24545245.9724   24545247.3574
      3776.8604
  -6589342.09747  -5066176.84646  22473777.8814   22473777.6594   22473779.6234
     -2605.4674
 -21286877.08349 -16517276.39148  20481120.7584   20481120.2004   20481123.2124
      -217.2544
 -15889172.85548 -12305789.93047  21756468.9624   21756469.1014   21756470.6564
      2485.7624
  -2745032.76646  -2098770.74746  24011676.9034   24011676.8724   24011680.6294
     -2017.7554
   -584842.38947   -373365.26246  24494264.4984   24494264.3234   24494266.7574
     -3757.1804
 -18601223.76748 -14433924.90948  20543224.8054   20543224.4294   20543226.4514
      1072.1064
 -10140708.70749  -7885319.40148  20471437.9014   20471437.7454   20471443.2524
      -975.5624
 -16164246.05448 -12524524.22247  21226788.4394   21226788.5714   21226789.5034
     -1618.1594
 11 10  9  0 33  0.0000000  0  9G23G28G32G17G14G19G20G01G11
  -3685145.90946  -2809740.22445  24523683.6204   24523682.6134   24523685.4324
      3777.4814
  -6510959.49547  -5005099.52646  22488693.4314   22488693.8884   22488694.7414
     -2620.1334
 -21280084.68549 -16511983.75048  20482413.4324   20482412.8194   20482415.7614
      -235.5734
 -15963571.63848 -12363762.99047  21742311.6074   21742311.2304   21742312.9194
      2473.9864
  -2684227.69146  -2051390.27246  24023249.8104   24023247.9264   24023248.7744
     -2035.4614
   -472067.04147   -285488.54046  24515724.1934   24515723.5854   24515727.4914
     -3761.2154
 -18633153.42748 -14458805.19648  20537148.6984   20537147.9784   20537150.3574
      1056.4954
 -10111279.46349  -7862387.51348  20477038.1054   20477037.8144   20477043.2464
      -986.6374
 -16115552.12448 -12486580.90747  21236054.5204   21236054.7574   21236055.9934
     -1628.0894
 11 10  9  0 33 30.0000000  0  9G23G28G32G17G14G19G20G01G11
  -3798443.09547  -2898023.75746  24502122.8734   24502122.7034   24502125.2794
      3776.2544
  -6432121.52647  -4943667.37146  22503695.4794   22503695.4624   22503697.2964
     -2635.2204
 -21272723.70149 -16506247.88948  20483813.9444   20483813.7994   20483816.8284
      -254.7174
 -16037591.94348 -12421441.12447  21728225.4574   21728225.9184   21728226.9394
      2461.0154
  -2622890.69046  -2003594.84646  24034919.7414   24034919.6254   24034923.3444
     -2053.1754
   -359164.46347   -197512.70346  24537210.8254   24537210.4554   24537211.7874
     -3765.5314
 -18664596.08948 -14483305.98648  20531165.4144   20531165.0274   20531167.2754
      1040.0744
 -10081502.06549  -7839184.36848  20482704.4504   20482704.2284   20482709.6134
      -998.2894
 -16066541.13448 -12448390.51347  21245381.1314   21245380.5944   21245382.7864
     -1638.9534
 11 10  9  0 34  0.0000000  0  9G23G28G32G17G14G19G20G01G11
  -3911721.57347  -2986292.69046  24480569.1584   24480567.9384   24480569.2604
      3775.1364
  -6352829.26147  -4881881.22946  22518784.9174   22518783.6864   22518785.9364
     -2651.0554
