     2.11           OBSERVATION DATA    M (MIXED)           RINEX VERSION / TYPE
teqc  2016Apr1                          20160930 07:51:16UTCPGM / RUN BY / DATE
Linux 2.4.20-8|Pentium IV|gcc|Linux|486/DX+                 COMMENT
teqc  2016Apr1                          20160816 03:35:46UTCCOMMENT
TEQC  2011AUG2                          20111001 01:01:47UTCCOMMENT
LINUX 2.4.20-8|PENTIUM IV|GCC -STATIC|LINUX|486/DX+         COMMENT
TEQC  2011AUG2                          20111001 00:15:49UTCCOMMENT
TEQC  2011AUG2                          20111001 00:15:39UTCCOMMENT
BIT 2 OF LLI FLAGS DATA COLLECTED UNDER A/S CONDITION       COMMENT
 SNR IS MAPPED TO RINEX SNR FLAG VALUE [0-9]                COMMENT
  L1 & L2: MIN(MAX(INT(SNR_DBHZ/6), 0), 9)                  COMMENT
PSEUDORANGE SMOOTHING CORRECTIONS NOT APPLIED               COMMENT
TASH                                                        MARKER NAME
12327M001                                                   MARKER NUMBER
GFZ                 GFZ/AOT                                 OBSERVER / AGENCY
200                 JAVAD TRE_G3TH DELTA3.1.7               REC # / TYPE / VERS
328                 JAV_RINGANT_G3T NONE                    ANT # / TYPE
  1695945.1994  4487138.5684  4190140.6931                  APPROX POSITION XYZ
        0.1206        0.0000        0.0000                  ANTENNA: DELTA H/E/N
     1     1                                                WAVELENGTH FACT L1/2
    10    L1    L2    L5    C1    P1    P2    C5    S1    S2# / TYPES OF OBSERV
          S5                                                # / TYPES OF OBSERV
    30.0000                                                 INTERVAL
teqc windowed: start @ 2011 Oct  1 00:10:00.000             COMMENT
teqc windowed:  end  @ 2011 Oct  1 00:20:00.000             COMMENT
  2011    10     1     0    10    0.0000000     GPS         TIME OF FIRST OBS
    15                                                      LEAP SECONDS
                                                            END OF HEADER
 11 10  1  0 10  0.0000000  0 19G10R19R01G16R12G03R10G20G23R11G32R02
                                G07G08G13G19R08G06R20
 119551503.546 7  93157011.36544                  22749894.597    22749893.308
  22749899.349                          45.000          28.5004
 126222375.153 6  98173173.387 6                  23595995.954    23595993.866
  23596010.134                          41.750          39.750
 106534617.317 8  82860249.605 7                  19929500.240    19929500.186
  19929516.582                          51.500          40.750
 110454102.606 8  86068140.73247                  21018712.888    21018712.380
  21018717.238                          51.500          43.5004
 122631138.902 7  95380183.400 5                  22956904.508    22956903.926
  22956922.676                          42.000          33.500
 118161259.229 7  92073705.78845                  22485338.660    22485338.000
  22485344.370                          45.250          30.5004
 113297407.668 8  88120378.471 6                  21254343.288    21254342.766
  21254362.041                          49.000          39.250
 124690791.434 6  97161651.99043                  23727869.741    23727869.443
  23727875.060                          39.250          23.0004
 106153029.116 9  82716650.96447                  20200246.786    20200246.144
  20200249.384                          54.000          46.5004
 106127561.110 8  82544194.033 7                  19860449.879    19860449.635
  19860466.805                          50.250          40.500
 132798733.149 5 103479530.16442                  25270757.949    25270755.625
  25270762.191                          34.000          13.2504
 122620211.142 7  95372247.575 6                  22979208.771    22979208.400
  22979222.969                          42.750          36.750
 117943835.058 7  91904216.18347                  22443944.246    22443944.169
  22443949.837                          46.250          34.7504
 130552134.381 6 101728936.89843                  24843246.349    24843246.236
  24843254.080                          37.500          18.5004
 106958808.260 8  83344531.48247                  20353579.169    20353579.098
  20353583.404                          53.250          44.2504
 129519273.590 6 100924106.01143                  24646698.637    24646697.688
  24646703.233                          37.250          20.5004
 113524423.422 8  88295904.745 7                  21199677.784    21199677.741
  21199693.257                          48.500          42.000
 121678090.066 7  94814097.54944                  23154568.346    23154568.031
  23154574.858                          44.750          28.5004
 121819603.984 6  94749171.902 6                  22781022.411    22781022.551
  22781039.779                          36.750          39.750
 11 10  1  0 10 30.0000000  0 19G10R19R01G16R12G03R10G20G23R11G32R02
                                G07G08G13G19R08G06R20
 119503920.720 7  93119933.85744                  22740840.251    22740839.460
  22740845.255                          44.000          29.2504
 126243448.067 7  98189563.418 6                  23599934.300    23599933.638
  23599948.069                          42.000          38.500
 106522354.889 8  82850712.153 7                  19927206.678    19927206.312
  19927222.765                          52.000          40.500
 110489015.063 8  86095345.26247                  21025356.930    21025356.099
  21025360.921                          51.750          43.5004
 122536164.084 7  95306314.131 6                  22939123.986    22939124.829
  22939143.438                          42.250          35.250
 118083247.052 7  92012917.12145                  22470492.832    22470491.831
  22470499.899                          44.750          30.2504
 113363341.476 8  88171660.292 6                  21266713.010    21266711.964
  21266730.872                          49.250          38.500
 124787044.322 6  97236654.22143                  23746185.353    23746184.454
  23746192.923                          38.000          23.7504
 106159158.469 9  82721427.05447                  20201413.063    20201412.667
  20201415.696                          54.250          46.2504
 106109798.318 8  82530378.544 6                  19857125.111    19857125.563
  19857142.363                          50.250          40.250
 132894432.931 5 103554101.40842                  25288968.269    25288967.280
  25288975.267                          35.000          14.7504
 122501033.960 7  95279554.174 6                  22956874.993    22956874.326
  22956891.375                          42.250          37.500
 117867577.276 7  91844794.59247                  22429432.925    22429432.882
  22429437.578                          47.000          35.0004
 130460468.938 6 101657509.27042                  24825803.080    24825802.399
  24825808.669                          37.000          17.7504
 106914708.767 8  83310168.23447                  20345187.731    20345187.260
  20345191.548                          52.500          44.2504
 129414151.133 6 100842192.38843                  24626693.362    24626692.320
  24626697.158                          36.000          20.5004
 113626733.387 8  88375479.140 7                  21218783.588    21218783.562
  21218799.044                          48.500          41.250
 121628894.635 7  94775763.51944                  23145206.301    23145205.488
  23145213.006                          43.750          28.0004
 121743109.919 6  94689676.561 6                  22766718.487    22766716.728
  22766735.504                          36.250          40.000
 11 10  1  0 11  0.0000000  0 19G10R19R01G16R12G03R10G20G23R11G32R02
                                G07G08G13G19R08G06R20
 119456907.115 7  93083299.87744                  22731893.673    22731893.279
  22731898.142                          45.000          29.2504
 126265259.590 7  98206527.951 6                  23604010.800    23604012.009
  23604025.191                          42.500          38.750
 106510930.708 8  82841826.674 7                  19925069.034    19925069.016
  19925086.044                          51.750          40.750
 110524466.933 8  86122970.09847                  21032103.019    21032102.263
  21032107.209                          51.750          43.5004
 122441399.305 7  95232608.231 6                  22921385.691    22921385.765
  22921403.142                          44.000          35.000
 118005662.212 7  91952461.41045                  22455729.148    22455729.158
  22455737.050                          44.000          31.0004
 113429420.513 8  88223055.060 6                  21279109.293    21279108.370
  21279127.067                          49.250          38.750
 124883394.511 6  97311732.29743                  23764520.550    23764518.997
  23764525.154                          38.250          22.2504
 106165770.914 9  82726579.59147                  20202671.739    20202671.172
  20202673.998                          54.250          46.2504
 106092412.078 8  82516855.915 7                  19853872.600    19853872.107
  19853889.121                          50.250          40.500
 132990104.685 6 103628650.88442                  25307175.236    25307173.760
  25307181.262                          37.000          14.7504
 122382263.180 7  95187176.948 6                  22934617.821    22934616.369
  22934633.476                          42.000          38.000
 117791505.193 7  91785517.67547                  22414956.907    22414956.678
  22414962.065                          46.500          35.0004
 130368884.974 5 101586145.12542                  24808374.759    24808374.160
  24808381.003                          35.250          16.2504
 106871018.043 8  83276123.51047                  20336873.429    20336873.007
  20336877.419                          53.250          44.0004
 129309059.474 6 100760302.79943                  24606695.548    24606693.305
  24606700.271                          37.250          21.5004
 113729489.199 8  88455400.304 7                  21237972.764    21237972.296
  21237987.014                          48.250          41.250
 121580172.090 7  94737797.92944                  23135934.602    23135933.516
  23135940.763                          43.250          28.2504
 121667201.321 6  94630636.607 6                  22752520.839    22752521.790
  22752539.258                          37.000          39.750
 11 10  1  0 11 30.0000000  0 19G10R19R01G16R12G03R10G20G23R11G32R02
                                G07G08G13G19R08G06R20
 119410441.271 7  93047092.70244                  22723050.990    22723050.786
  22723055.327                          43.250          28.7504
 126287785.886 7  98224048.384 6                  23608222.732    23608222.384
  23608237.526                          42.000          38.500
 106500322.654 8  82833575.956 7                  19923084.474    19923084.597
  19923101.212                          51.500          40.500
 110560434.051 8  86150996.43147                  21038947.312    21038946.640
  21038951.602                          50.750          43.5004
 122346822.149 6  95159048.268 6                  22903678.785    22903679.480
  22903697.837                          41.500          35.250
 117928485.448 7  91892323.66345                  22441043.749    22441043.069
  22441050.578                          45.000          32.0004
 113495620.820 8  88274544.166 6                  21291527.268    21291527.260
  21291545.541                          48.750          38.250
 124979817.009 6  97386866.70843                  23782868.824    23782868.430
  23782873.525                          38.000          21.2504
 106172845.050 8  82732091.88547                  20204017.631    20204017.245
  20204020.186                          53.500          46.2504
 106075378.528 8  82503607.611 7                  19850684.668    19850684.478
  19850701.606                          50.500          40.250
 133085723.921 5 103703159.40442                  25325370.097    25325369.104
  25325375.107                          34.250          12.2504
 122263880.306 7  95095101.377 6                  22912433.485    22912432.607
  22912448.167                          43.750          37.750
 117715596.580 7  91726368.13947                  22400512.435    22400512.567
  22400516.972                          46.250          34.7504
 130277360.060 6 101514827.00142                  24790958.682    24790957.974
  24790964.959                          36.000          14.5004
 106827715.677 8  83242381.40947                  20328633.188    20328633.019
  20328637.292                          52.750          44.2504
 129203979.778 6 100678422.46443                  24586699.734    24586698.102
  24586704.569                          37.750          22.2504
 113832664.530 8  88535647.748 7                  21257240.578    21257239.764
  21257254.848                          48.750          41.750
 121531901.938 7  94700184.85144                  23126748.838    23126749.492
  23126756.210                          42.250          28.5004
 121591858.659 6  94572036.800 6                  22738433.556    22738431.763
  22738451.286                          38.000          40.750
 11 10  1  0 12  0.0000000  0 20G10R19R01G16R12G03R10G20G23R11G32R02
                                G07G08G13R04G19R08G06R20
 119364529.710 7  93011317.45344                  22714314.726    22714313.682
  22714319.047                          44.250          28.7504
 126311030.852 6  98242127.816 6                  23612569.480    23612566.823
  23612582.276                          40.750          38.750
 106490536.559 8  82825964.531 7                  19921254.320    19921254.022
  19921270.612                          51.750          40.500
 110596919.608 8  86179426.73947                  21045889.950    21045889.507
  21045894.339                          51.750          43.2504
 122252438.181 7  95085638.567 6                  22886010.976    22886010.533
  22886029.539                          42.500          35.250
 117851725.430 7  91832510.68745                  22426436.318    22426435.849
  22426442.988                          45.500          31.7504
 113561946.566 8  88326130.829 6                  21303970.777    21303970.056
  21303988.956                          49.250          38.500
 125076314.342 6  97462059.44943                  23801232.504    23801230.206
  23801237.354                          39.250          23.7504
 106180386.614 9  82737968.42447                  20205452.658    20205452.490
  20205455.402                          54.250          46.0004
 106058701.876 8  82490636.895 7                  19847563.710    19847563.637
  19847580.342                          50.250          40.750
 133181293.671 5 103777629.39141                  25343555.461    25343554.024
  25343560.129                          32.750           8.7504
 122145894.884 7  95003334.928 6                  22890321.369    22890321.503
  22890337.553                          42.500          37.750
 117639857.184 7  91667350.47047                  22386099.264    22386099.208
  22386104.708                          47.750          35.5004
 130185899.743 6 101443559.22542                  24773554.559    24773553.305
  24773560.663                          36.750          15.5004
 106784808.411 8  83208947.17747                  20320468.180    20320467.907
  20320472.101                          52.750          44.0004
 126327705.81916  98255024.42116                  23682118.881    23682118.819
  23682135.069                          37.500          35.750
 129098919.937 6 100596557.68943                  24566706.938    24566706.738
  24566712.635                          37.000          20.7504
 113936261.017 8  88616222.757 7                  21276585.839    21276585.687
  21276600.601                          48.500          41.250
 121484091.696 7  94662930.15544                  23117652.064    23117651.511
  23117657.402                          44.250          29.0004
 121517091.124 6  94513884.328 6                  22724451.765    22724450.340
  22724467.891                          37.750          40.000
 11 10  1  0 12 30.0000000  0 20G10R19R01G16R12G03R10G20G23R11G32R02
                                G07G08G13R04G19R08G06R20
 119319175.009 7  92975976.11744                  22705683.722    22705682.595
  22705688.681                          44.500          29.0004
 126334995.141 6  98260766.680 6                  23617046.808    23617047.087
  23617062.327                          40.250          38.250
 106481573.958 8  82818993.610 7                  19919577.495    19919577.383
  19919593.706                          51.750          40.750
 110633923.227 8  86208260.73847                  21052931.751    21052931.132
  21052936.039                          51.500          43.2504
 122158249.488 7  95012380.749 6                  22868379.646    22868378.180
  22868398.015                          43.500          35.500
 117775386.475 7  91773025.78145                  22411910.202    22411909.412
  22411916.138                          46.000          31.7504
 113628397.747 8  88377815.062 6                  21316436.139    21316436.147
  21316454.366                          48.750          39.000
 125172885.070 6  97537309.37443                  23819608.241    23819608.634
  23819614.312                          38.750          22.5004
 106188397.561 9  82744210.70847                  20206977.533    20206976.865
  20206979.782                          54.250          46.2504
 106042382.803 8  82477944.306 7                  19844510.102    19844509.584
  19844526.560                          50.500          40.500
 133276813.277 5 103852060.23441                  25361732.301    25361730.356
  25361739.602                          33.000          10.0004
 122028312.194 7  94911881.715 6                  22868286.369    22868286.788
  22868303.174                          42.500          38.000
 117564288.851 7  91608466.09747                  22371719.814    22371719.218
  22371723.799                          47.750          35.0004
 130094505.993 6 101372343.18042                  24756163.147    24756162.335
  24756169.704                          38.000          16.7504
 106742299.712 8  83175823.51047                  20312379.198    20312378.975
  20312383.134                          53.250          44.2504
 126206119.687 6  98160457.466 6                  23659324.910    23659324.000
  23659341.840                          37.500          34.250
 128993885.047 6 100514712.28643                  24546719.474    24546717.452
  24546724.671                          36.250          20.2504
 114040275.965 7  88697123.245 7                  21296009.163    21296009.834
  21296025.039                          47.750          41.500
 121436744.792 7  94626036.50844                  23108641.634    23108640.756
  23108648.412                          43.500          29.2504
 121442904.484 6  94456183.652 6                  22710577.553    22710577.294
  22710595.682                          37.500          40.750
 11 10  1  0 13  0.0000000  0 20G10R19R01G16R12G03R10G20G23R11G32R02
                                G07G08G13R04G19R08G06R20
 119274398.975 7  92941085.70944                  22697163.246    22697162.336
  22697168.229                          43.250          29.0004
 126359698.285 6  98279980.207 6                  23621664.570    23621664.934
  23621681.206                          38.500          38.250
 106473456.135 8  82812679.749 7                  19918059.118    19918058.574
  19918075.083                          51.750          40.500
 110671463.022 8  86237512.53447                  21060075.171    21060074.731
  21060079.621                          51.000          43.5004
 122064276.941 7  94939291.050 5                  22850786.458    22850785.921
  22850804.248                          43.500          34.250
 117699492.201 7  91713887.38745                  22397467.284    22397465.956
  22397473.354                          44.750          31.0004
 113694993.162 8  88429611.467 6                  21328928.871    21328928.853
  21328948.529                          48.250          38.750
 125269546.907 6  97612630.26043                  23838002.737    23838002.831
  23838008.586                          38.750          22.7504
 106196899.112 8  82750835.28347                  20208595.078    20208594.596
  20208597.579                          53.750          46.2504
 106026440.657 8  82465544.888 7                  19841526.299    19841526.303
  19841543.583                          50.500          40.750
 133372300.739 5 103926466.06242                  25379902.928    25379901.667
  25379911.203                          35.250          12.0004
 121911157.028 7  94820761.040 6                  22846332.964    22846332.465
  22846347.411                          44.000          38.000
 117488912.228 7  91549731.09047                  22357375.428    22357375.351
  22357380.180                          47.250          35.2504
 130003199.331 6 101301195.12842                  24738788.555    24738788.774
  24738794.645                          38.000          17.5004
 106700211.396 8  83143027.41247                  20304370.054    20304369.864
  20304373.950                          53.000          44.2504
 126084675.963 6  98066001.266 6                  23636559.940    23636558.979
  23636576.050                          38.750          35.500
 128888898.349 6 100432904.40543                  24526741.554    24526740.995
  24526745.946                          37.250          20.2504
 114144726.047 8  88778362.156 7                  21315515.487    21315515.151
  21315530.496                          48.250          41.750
 121389883.710 7  94589521.39944                  23099723.391    23099722.993
  23099730.864                          43.000          29.5004
 121369322.793 6  94398953.501 6                  22696817.353    22696816.728
  22696834.964                          36.750          40.500
 11 10  1  0 13 30.0000000  0 20G10R19R01G16R12G03R10G20G23R11G32R02
                                G07G08G13R04G19R08G06R20
 119230167.447 7  92906619.57644                  22688746.557    22688745.774
  22688750.478                          45.000          29.7504
 126385103.043 6  98299739.497 6                  23626415.826    23626412.445
  23626429.372                          37.000          35.500
 106466147.468 8  82806995.225 7                  19916691.740    19916691.481
  19916708.033                          51.750          40.500
 110709501.790 8  86267153.14547                  21067313.944    21067313.281
  21067318.066                          50.500          43.2504
 121970484.941 7  94866341.711 5                  22833229.631    22833229.294
  22833246.766                          44.500          33.750
 117624010.173 7  91655070.23945                  22383103.414    22383103.300
  22383110.710                          45.500          31.0004
 113761696.206 8  88481491.586 6                  21341443.357    21341442.477
  21341460.626                          49.000          38.500
 125366261.745 6  97687992.47143                  23856407.431    23856406.380
  23856412.084                          38.750          21.0004
 106205856.417 8  82757814.99247                  20210299.834    20210299.216
  20210302.184                          53.500          46.0004
 106010838.842 8  82453410.171 7                  19838606.877    19838606.600
  19838623.626                          50.750          40.750
 133467718.802 5 104000817.85842                  25398060.768    25398059.756
  25398067.407                          35.250          12.2504
 121794397.759 7  94729948.270 6                  22824452.611    22824451.024
  22824466.201                          43.500          37.000
 117413692.075 7  91491118.03647                  22343061.299    22343061.515
  22343066.383                          47.250          35.5004
 129911944.651 6 101230087.56943                  24721423.112    24721422.529
  24721429.611                          37.500          18.0004
 106658510.244 8  83110532.99847                  20296434.550    20296434.288
  20296438.740                          53.000          44.5004
 125963343.829 5  97971631.828 5                  23613814.727    23613812.089
  23613830.828                          35.500          33.500
 128783928.052 6 100351109.34843                  24506766.610    24506765.938
  24506770.030                          39.500          21.5004
 114249571.612 7  88859908.678 7                  21335093.942    21335094.050
  21335109.719                          47.750          40.500
 121343475.161 7  94553358.88244                  23090893.196    23090892.720
  23090899.640                          43.500          28.5004
 121296314.060 6  94342168.954 6                  22683165.702    22683163.099
  22683181.695                          37.000          39.750
 11 10  1  0 14  0.0000000  0 20G10R19R01G16R12G03R10G20G23R11G32R02
                                G07G08G13R04G19R08G06R20
 119186513.053 7  92872603.15544                  22680439.650    22680437.717
  22680443.522                          42.250          29.7504
 126411240.373 6  98320068.555 5                  23631300.263    23631299.595
  23631314.337                          39.250          33.500
 106459680.311 8  82801965.203 6                  19915481.144    19915481.666
  19915497.750                          51.500          40.250
 110748068.593 8  86297205.20147                  21074652.738    21074652.036
  21074657.305                          51.250          43.2504
 121876905.840 7  94793558.021 6                  22815710.495    22815710.712
  22815728.622                          44.750          34.750
 117548975.052 7  91596601.32245                  22368824.211    22368823.390
  22368830.919                          45.000          31.5004
 113828537.420 8  88533479.168 6                  21353982.385    21353981.998
  21354000.209                          48.750          38.500
 125463058.659 6  97763418.64043                  23874826.972    23874826.692
  23874831.987                          39.500          20.7504
 106215301.769 9  82765174.98447                  20212096.886    20212096.494
  20212099.630                          54.000          46.2504
 105995607.900 8  82441563.907 7                  19835757.058    19835756.365
  19835773.712                          50.750          40.500
 133563096.629 5 104075138.26441                  25416210.054    25416209.695
  25416218.228                          35.500          11.5004
 121678070.612 6  94639471.578 6                  22802651.165    22802651.064
  22802668.201                          41.750          37.750
 117338660.447 7  91432651.85547                  22328783.704    22328783.524
  22328788.311                          47.750          36.0004
 129820773.728 6 101159045.33943                  24704072.788    24704073.222
  24704081.016                          36.250          18.2504
 106617229.598 8  83078366.25347                  20288579.024    20288578.810
  20288583.153                          52.000          44.2504
 125842159.565 5  97877377.382 5                  23591094.811    23591095.992
  23591111.915                          35.750          31.250
 128679008.678 6 100269353.95843                  24486801.023    24486798.996
  24486806.191                          38.250          22.0004
 114354841.002 8  88941784.824 7                  21354752.380    21354752.889
  21354768.000                          48.250          41.000
 121297552.826 7  94517575.25044                  23082153.994    23082153.261
  23082160.589                          42.000          29.2504
 121223914.595 6  94285858.273 6                  22669624.343    22669624.474
  22669643.096                          37.250          39.750
 11 10  1  0 14 30.0000000  0 20G10R19R01G16R12G03R10G20G23R11G32R02
                                G07G08G13R04G19R08G06R20
 119143422.060 7  92839025.74944                  22672239.176    22672237.821
  22672245.177                          44.000          29.7504
 126438093.505 6  98340954.311 6                  23636319.686    23636320.065
  23636334.824                          37.500          35.500
 106454039.560 8  82797577.938 7                  19914426.191    19914426.464
  19914443.067                          51.750          40.750
 110787146.628 8  86327655.62547                  21082089.628    21082088.716
  21082093.656                          52.000          43.2504
 121783524.559 7  94720928.179 6                  22798229.935    22798229.268
  22798247.826                          44.250          34.750
 117474374.721 7  91538471.18145                  22354629.287    22354628.228
  22354634.894                          45.500          31.2504
 113895499.937 8  88585561.107 6                  21366545.116    21366544.051
  21366562.490                          49.250          38.750
 125559919.728 6  97838894.78443                  23893259.410    23893257.076
  23893265.924                          40.250          21.7504
 106225220.617 9  82772903.93847                  20213984.266    20213983.917
  20213987.102                          54.250          46.0004
 105980731.824 8  82429993.646 6                  19832972.650    19832972.370
  19832988.806                          50.500          40.750
 133658417.074 6 104149413.95441                  25434349.824    25434349.325
  25434354.899                          36.250           9.2504
 121562164.282 7  94549322.229 6                  22780930.904    22780930.240
  22780947.578                          42.500          39.000
 117263802.412 7  91374320.95247                  22314538.489    22314538.115
  22314543.335                          47.750          35.5004
 129729671.510 6 101088056.59943                  24686736.736    24686736.591
  24686744.613                          36.250          19.0004
 106576355.980 8  83046516.66847                  20280801.113    20280800.726
  20280805.097                          52.750          44.5004
 125721115.35115                                  23568401.710    23568402.356
                                        33.500
 128574128.218 6 100187628.91043                  24466843.473    24466841.873
  24466848.505                          39.500          23.0004
 114460514.404 7  89023975.220 7                  21374486.295    21374486.122
  21374501.554                          47.750          41.250
 121252103.511 7  94482160.23444                  23073505.293    23073504.807
  23073512.248                          42.750          28.5004
 121152111.943 6  94230011.816 6                  22656196.988    22656197.093
  22656216.363                          36.000          40.000
 11 10  1  0 15  0.0000000  0 20G10R19R01G16R12G03R10G20G23R11G32R02
                                G07G08G13R04G19R08G06R20
 119100897.565 7  92805889.77244                  22664147.202    22664145.646
  22664152.339                          43.500          29.2504
 126465663.371 6  98362397.586 5                  23641474.777    23641472.629
  23641488.636                          38.250          34.500
 106449227.494 8  82793835.211 6                  19913526.556    19913526.314
  19913542.412                          51.750          40.750
 110826736.048 8  86358504.51947                  21089623.126    21089622.226
  21089627.063                          51.250          43.2504
 121690343.779 7  94648454.297 6                  22780784.370    22780785.527
  22780804.463                          44.250          35.250
 117400214.422 7  91480683.94845                  22340517.306    22340516.684
  22340523.492                          45.750          32.0004
 113962584.725 8  88637738.160 6                  21379129.223    21379128.448
  21379147.550                          48.500          38.750
 125656844.494 6  97914420.60843                  23911703.263    23911702.735
  23911709.399                          40.000          22.0004
 106235615.653 8  82781003.94547                  20215962.389    20215962.002
  20215965.080                          53.500          46.2504
 105966211.800 8  82418700.311 7                  19830255.582    19830255.136
  19830272.043                          50.500          40.500
 133753680.356 5 104223645.12841                  25452477.146    25452475.780
  25452483.177                          35.250           8.2504
 121446684.961 7  94459504.999 6                  22759290.340    22759290.109
  22759305.769                          44.250          38.000
 117189120.545 8  91316127.30847                  22300327.798    22300327.349
  22300331.076                          48.500          35.5004
 129638640.561 6 101017123.40442                  24669413.874    24669414.587
  24669420.777                          36.000          17.2504
 106535893.450 8  83014987.41547                  20273101.493    20273101.044
  20273105.406                          52.750          44.5004
 125600212.46915  97689187.93515                  23545736.638    23545737.309
  23545755.212                          33.000          31.250
 128469292.767 6 100105938.92143                  24446893.893    24446891.911
  24446897.953                          39.750          22.5004
 114566590.530 8  89106478.844 7                  21394295.155    21394295.703
  21394310.788                          48.000          41.000
 121207131.653 7  94447117.21844                  23064947.199    23064947.932
  23064953.566                          42.250          29.0004
 121080912.736 6  94174634.671 6                  22642882.779    22642882.888
  22642900.714                          36.750          39.250
 11 10  1  0 15 30.0000000  0 19G10R19R01G16R12G03R10G20G23R11G32R02
                                G07G08G13G19R08G06R20
 119058936.732 7  92773193.01444                  22656162.759    22656161.003
  22656166.780                          45.250          29.2504
 126493944.733 6  98384394.189 6                  23646760.694    23646759.746
  23646775.857                          37.000          35.750
 106445240.371 8  82790734.110 7                  19912780.509    19912780.403
  19912796.779                          51.750          40.750
 110866831.158 8  86389747.47547                  21097253.115    21097251.983
  21097256.668                          50.500          42.7504
 121597359.970 7  94576133.586 6                  22763379.428    22763378.704
  22763397.273                          45.000          35.000
 117326493.473 7  91423239.04545                  22326488.428    22326488.272
  22326495.009                          46.000          32.2504
 114029786.663 8  88690006.319 6                  21391734.835    21391735.094
  21391754.829                          48.250          38.500
 125753826.587 6  97989991.05743                  23930157.947    23930157.541
  23930163.530                          40.250          21.7504
 106246483.696 8  82789472.53647                  20218030.818    20218030.209
  20218033.386                          53.250          46.0004
 105952042.906 8  82407680.086 6                  19827603.641    19827603.466
  19827620.267                          50.250          40.500
 133848880.494 5 104297827.09241                  25470592.870    25470592.453
  25470599.628                          34.250           9.2504
 121331633.356 7  94370020.389 6                  22737730.507    22737730.254
  22737745.638                          44.750          38.500
 117114611.179 7  91258068.07247                  22286148.126    22286147.411
  22286152.530                          47.500          34.7504
 129547677.542 6 100946243.11642                  24652104.767    24652103.820
  24652109.869                          36.750          16.2504
 106495839.532 8  82983776.56247                  20265479.349    20265479.241
  20265483.538                          52.750          44.5004
 128364501.421 6 100024283.29943                  24426953.166    24426953.028
  24426957.509                          40.500          22.7504
 114673061.417 8  89189289.511 7                  21414179.044    21414178.447
  21414193.695                          48.000          41.000
 121162635.388 7  94412444.80744                  23056480.622    23056479.523
  23056486.871                          43.000          28.7504
 121010315.874 6  94119726.069 6                  22629681.210    22629680.495
  22629699.117                          38.250          40.500
 11 10  1  0 16  0.0000000  0 20G10R19R01G16R12G03R10G20G23R11G32R02
                                G07G08G13R04G19R08G06R20
 119017549.158 7  92740942.94144                  22648286.714    22648285.140
  22648291.286                          45.250          29.7504
 126522944.655 6  98406949.651 6                  23652184.567    23652183.016
  23652197.456                          40.000          37.250
 106442086.913 8  82788281.414 7                  19912190.679    19912190.622
  19912207.019                          51.750          40.500
 110907437.996 8  86421389.16747                  21104979.454    21104979.179
  21104984.017                          50.500          42.7504
 121504581.692 7  94503972.793 6                  22746010.742    22746010.362
  22746028.580                          45.000          35.500
 117253223.441 7  91366145.51445                  22312545.498    22312544.693
  22312551.274                          45.750          31.7504
 114097113.196 8  88742371.378 6                  21404365.753    21404366.001
  21404384.566                          48.250          38.500
 125850871.548 6  98065610.44843                  23948624.817    23948624.250
  23948630.876                          40.000          20.5004
 106257833.689 8  82798316.66947                  20220190.540    20220190.068
  20220193.145                          53.500          46.0004
 105938232.615 8  82396938.788 7                  19825019.404    19825019.302
  19825036.382                          50.250          40.750
 133944023.540 5 104371964.51841                  25488697.100    25488696.428
  25488702.522                          35.000          10.5004
 121217021.765 7  94280878.040 6                  22716250.298    22716250.198
  22716268.051                          42.250          38.750
 117040283.254 7  91200150.20347                  22272004.093    22272003.704
  22272008.420                          47.500          35.7504
 129456790.808 6 100875422.30443                  24634810.154    24634807.790
  24634817.739                          37.250          18.0004
 106456205.016 8  82952892.51347                  20257937.358    20257936.759
  20257941.386                          52.750          44.5004
 125358866.78516  97501462.62115                  23500491.110    23500491.288
  23500507.580                          37.000          31.500
 128259765.609 6  99942670.94343                  24407022.539    24407021.032
  24407026.356                          38.750          21.7504
 114779931.433 7  89272410.612 6                  21434135.782    21434134.974
  21434150.334                          47.500          40.250
 121118625.166 7  94378151.15144                  23048105.002    23048104.221
  23048111.103                          43.250          28.0004
 120940334.034 6  94065295.768 6                  22616593.798    22616592.782
  22616612.105                          38.000          40.500
 11 10  1  0 16 30.0000000  0 20G10R19R01G16R12G03R10G20G23R11G32R02
                                G07G08G13R04G19R08G06R20
 118976736.951 7  92709141.20744                  22640520.351    22640518.320
  22640525.469                          44.750          29.5004
 126552662.771 6  98430063.759 6                  23657738.635    23657737.914
  23657752.763                          41.750          37.250
 106439767.787 8  82786477.635 7                  19911756.912    19911756.645
  19911773.502                          51.500          40.250
 110948555.028 8  86453428.42947                  21112804.154    21112803.424
  21112808.352                          51.250          43.2504
 121412010.560 7  94431973.080 6                  22728680.420    22728680.007
  22728699.846                          43.750          35.500
 117180408.065 7  91309406.25045                  22298688.825    22298688.158
  22298695.473                          43.500          32.0004
 114164563.707 7  88794832.865 6                  21417019.728    21417019.223
  21417038.115                          47.750          38.250
 125947977.679 6  98141277.57543                  23967104.075    23967102.834
  23967109.830                          41.250          21.2504
 106269667.035 8  82807537.44547                  20222442.309    20222441.882
  20222444.888                          53.250          45.7504
 105924780.602 8  82386476.136 7                  19822502.300    19822501.891
  19822519.145                          50.250          40.750
 134039108.258 5 104446056.53441                  25506792.084    25506790.549
  25506799.484                          34.750           9.7504
 121102855.035 7  94192081.738 6                  22694855.721    22694856.074
  22694872.636                          43.000          38.250
 116966137.810 7  91142374.54647                  22257894.413    22257894.377
  22257899.726                          46.250          36.0004
 129365981.716 6 100804661.96443                  24617529.602    24617529.085
  24617534.612                          38.000          19.0004
 106416992.343 8  82922337.17247                  20250475.176    20250475.166
  20250479.403                          53.250          44.5004
 125238429.845 6  97407789.388 6                  23477910.857    23477914.176
  23477930.697                          37.250          33.000
 128155089.782 6  99861105.32243                  24387102.791    24387102.228
  24387107.266                          39.000          22.0004
 114887197.882 7  89355840.056 6                  21454166.672    21454166.722
  21454182.018                          47.750          40.500
 121075103.579 7  94344238.24344                  23039823.147    23039822.636
  23039828.620                          43.000          28.5004
 120870971.519 6  94011347.204 6                  22603623.746    22603622.585
  22603640.252                          38.000          40.000
 11 10  1  0 17  0.0000000  0 20G10R19R01G16R12G03R10G20G23R11G32R02
                                G07G08G13R04G19R08G06R20
 118936489.957 7  92677779.91644                  22632861.460    22632860.052
  22632866.890                          45.000          29.2504
 126583086.104 7  98453726.362 6                  23663426.392    23663426.198
  23663440.807                          42.500          39.250
 106438271.874 8  82785314.132 7                  19911476.711    19911476.842
  19911493.536                          51.500          40.500
 110990169.622 8  86485855.38647                  21120723.282    21120722.695
  21120727.290                          51.000          42.7504
 121319635.183 7  94360125.639 6                  22711388.916    22711388.127
  22711405.772                          44.000          35.250
 117108039.317 7  91253015.03145                  22284917.903    22284916.951
  22284924.374                          46.000          31.7504
 114232125.295 8  88847380.742 6                  21429694.186    21429693.308
  21429712.582                          48.000          38.500
 126045131.152 6  98216981.57143                  23985592.369    23985589.596
  23985597.176                          41.750          20.5004
 106281973.038 8  82817126.52447                  20224784.103    20224783.713
  20224786.636                          53.750          46.0004
 105911674.528 8  82376282.546 7                  19820049.339    19820049.316
  19820066.234                          50.250          40.750
 134134121.628 5 104520092.94841                  25524872.195    25524872.456
  25524879.628                          35.500          10.7504
 120989126.143 7  94103625.899 6                  22673544.166    22673543.645
  22673559.255                          43.500          37.750
 116892163.843 7  91084732.52247                  22243818.112    22243818.188
  22243822.522                          47.750          36.2504
 129275239.062 6 100733953.42743                  24600261.368    24600260.532
  24600268.521                          37.750          18.2504
 106378192.232 8  82892103.31347                  20243091.896    20243091.481
  20243095.883                          53.250          44.5004
 125118149.688 6  97314238.176 5                  23455364.850    23455364.870
  23455381.341                          36.000          32.500
 128050465.876 6  99779580.12943                  24367194.009    24367193.682
  24367199.662                          39.000          21.7504
 114994845.313 7  89439565.823 6                  21474269.730    21474269.423
  21474284.672                          47.250          40.750
 121032061.517 7  94310698.97444                  23031632.301    23031632.172
  23031639.543                          43.000          28.7504
 120802220.926 6  93957874.528 6                  22590766.438    22590765.122
  22590783.583                          38.250          39.250
 11 10  1  0 17 30.0000000  0 20G10R19R01G16R12G03R10G20G23R11G32R02
                                G07G08G13R04G19R08G06R20
 118896807.893 7  92646858.80945                  22625310.159    22625309.328
  22625315.666                          45.500          30.0004
 126614212.065 6  98477935.487 6                  23669243.769    23669243.716
  23669259.075                          41.500          38.500
 106437598.020 8  82784790.006 7                  19911351.294    19911350.784
  19911367.172                          51.750          40.750
 111032277.796 8  86518666.95547                  21128736.184    21128735.364
  21128740.026                          50.500          43.0004
 121227454.665 7  94288429.755 5                  22694131.435    22694130.687
  22694150.097                          42.250          34.500
 117036118.914 7  91196973.18545                  22271232.122    22271230.758
  22271236.906                          45.750          31.5004
 114299795.827 8  88900013.357 6                  21442389.374    21442388.687
  21442407.497                          48.000          38.250
 126142327.852 6  98292719.29743                  24004087.697    24004087.162
  24004093.604                          41.500          21.0004
 106294751.028 8  82827083.38047                  20227215.627    20227215.319
  20227218.313                          53.000          46.0004
 105898912.129 8  82366356.261 7                  19817661.348    19817660.945
  19817677.753                          50.000          40.750
 134229060.108 5 104594071.04041                  25542939.238    25542939.928
  25542944.520                          35.500          11.5004
 120875838.025 7  94015512.901 6                  22652314.481    22652314.015
  22652330.087                          44.750          38.750
 116818360.794 7  91027223.67147                  22229773.892    22229774.032
  22229778.565                          47.500          36.5004
 129184561.995 6 100663295.98242                  24583006.481    24583005.935
  24583011.686                          37.750          17.7504
 106339805.050 8  82862191.20447                  20235787.076    20235786.710
  20235791.100                          53.000          44.5004
 124998028.74515  97220811.53415                  23432843.296    23432846.548
  23432863.846                          34.500          32.750
 127945895.800 6  99698096.90143                  24347293.937    24347293.741
  24347300.257                          38.500          22.7504
 115102868.748 7  89523584.028 7                  21494441.299    21494441.579
  21494456.764                          47.250          40.500
 120989499.733 7  94277533.94444                  23023533.803    23023532.861
  23023539.491                          43.000          29.2504
 120734084.650 6  93904879.654 6                  22578024.684    22578024.095
  22578041.749                          37.750          40.500
 11 10  1  0 18  0.0000000  0 20G10R19R01G16R12G03R10G20G23R11G32R02
                                G07G08G13R04G19R08G06R20
 118857699.859 7  92616385.03144                  22617867.826    22617867.012
  22617873.484                          45.500          29.5004
 126646047.360 6  98502696.297 6                  23675194.683    23675194.817
  23675209.998                          40.750          38.500
 106437754.094 8  82784911.388 7                  19911380.236    19911379.912
  19911396.548                          51.750          40.500
 111074885.582 8  86551867.83747                  21136843.905    21136843.309
  21136848.097                          51.250          43.0004
 121135477.659 7  94216892.137 5                  22676912.777    22676912.942
  22676931.567                          43.500          34.750
 116964657.784 7  91141289.17545                  22257631.704    22257631.209
  22257639.357                          43.750          31.7504
 114367582.334 8  88952736.171 6                  21455106.080    21455105.272
  21455124.019                          48.250          38.000
 126239573.333 6  98368494.98443                  24022592.492    24022591.734
  24022598.576                          40.750          21.0004
 106308009.680 8  82837414.77547                  20229738.612    20229738.425
  20229741.434                          53.250          45.7504
 105886500.742 8  82356702.982 7                  19815338.275    19815337.968
  19815354.922                          50.250          40.750
 134323929.712 5 104667995.39141                  25560992.121    25560991.307
  25560998.999                          35.000           7.2504
 120763002.674 7  93927752.104 6                  22631168.990    22631168.247
  22631184.080                          44.250          39.250
 116744737.082 7  90969854.55247                  22215764.135    22215763.568
  22215768.110                          47.750          36.2504
 129093959.065 6 100592696.33143                  24565764.641    24565762.684
  24565770.701                          38.000          19.0004
 106301840.219 8  82832608.20147                  20228562.495    20228562.253
  20228566.750                          52.750          44.2504
 124878081.470 5  97127519.237 5                  23410360.736    23410361.693
  23410378.199                          35.750          33.250
 127841391.216 6  99616664.71343                  24327406.915    24327406.405
  24327413.192                          36.250          22.0004
 115211272.107 7  89607897.736 6                  21514684.462    21514684.923
  21514700.125                          46.250          40.500
 120947428.280 6  94244751.01844                  23015527.047    23015526.871
  23015533.827                          41.250          28.5004
 120666574.645 6  93852371.903 6                  22565399.883    22565399.903
  22565417.204                          38.250          40.000
 11 10  1  0 18 30.0000000  0 20G10R19R01G16R12G03R10G20G23R11G32R02
                                G07G08G13R04G19R08G06R20
 118819179.654 7  92586369.27244                  22610537.580    22610536.298
  22610543.185                          45.250          29.5004
 126678603.224 6  98528017.546 6                  23681280.756    23681280.193
  23681296.056                          38.750          38.000
 106438752.749 8  82785688.108 6                  19911566.879    19911566.785
  19911583.491                          51.500          40.250
 111118003.651 8  86585466.33047                  21145049.260    21145048.527
  21145053.360                          51.000          43.0004
 121043717.003 7  94145522.811 6                  22659735.005    22659735.406
  22659753.501                          43.750          35.500
 116893671.472 7  91085975.16845                  22244125.052    22244123.774
  22244131.119                          45.750          32.2504
 114435496.089 8  89005557.953 6                  21467846.687    21467845.831
  21467864.328                          48.250          38.000
 126336877.630 6  98444316.49043                  24041109.154    24041108.091
  24041114.153                          41.250          20.0004
 106321761.935 8  82848130.79547                  20232355.778    20232355.290
  20232358.465                          53.500          45.7504
 105874452.040 8  82347331.778 7                  19813083.819    19813083.565
  19813100.534                          50.000          40.750
 134418741.081 5 104741874.44541                  25579035.661    25579032.793
  25579040.231                          35.000           9.2504
 120650637.051 7  93840356.625 6                  22610110.305    22610110.414
  22610126.054                          43.000          38.250
 116671305.340 7  90912635.01847                  22201790.541    22201789.930
  22201793.943                          47.500          36.0004
 129003442.561 6 100522164.04243                  24548539.593    24548538.932
  24548546.602                          37.000          19.0004
 106264312.752 8  82803366.00647                  20221421.442    20221421.334
  20221425.457                          53.500          44.5004
 124758324.802 6  97034375.131 5                  23387910.761    23387910.341
  23387927.088                          36.000          33.750
 127736967.718 6  99535295.75743                  24307536.150    24307535.287
  24307540.652                          36.500          21.5004
 115320064.563 7  89692514.096 6                  21535000.961    21535001.656
  21535015.462                          46.750          39.750
 120905861.744 7  94212361.53344                  23007618.078    23007617.840
  23007623.370                          43.250          29.2504
 120599706.602 6  93800363.455 6                  22552893.041    22552894.658
  22552912.652                          37.750          39.750
 11 10  1  0 19  0.0000000  0 20G10R19R01G16R12G03R10G20G23R11G32R02
                                G07G08G13R04G19R08G06R20
 118781224.206 7  92556793.59944                  22603315.887    22603314.637
  22603320.196                          46.250          29.5004
 126711854.058 6  98553879.323 6                  23687496.091    23687495.916
  23687513.035                          37.500          39.250
 106440569.897 8  82787101.435 6                  19911907.084    19911906.818
  19911923.579                          51.500          40.250
 111161606.161 8  86619442.30847                  21153346.503    21153345.993
  21153350.740                          51.500          43.0004
 120952149.061 7  94074303.379 6                  22642593.867    22642593.703
  22642611.615                          43.750          35.750
 116823139.358 7  91031015.08645                  22230702.708    22230701.838
  22230708.550                          44.750          31.7504
 114503512.342 7  89058459.467 6                  21480605.190    21480605.057
  21480623.759                          47.500          37.750
 126434214.498 7  98520163.37343                  24059631.869    24059631.693
  24059637.079                          42.000          20.0004
 106335984.727 8  82859213.47347                  20235062.289    20235061.869
  20235064.912                          53.750          45.5004
 105862740.787 8  82338223.042 7                  19810891.917    19810891.811
  19810908.671                          49.750          40.750
 134513468.267 5 104815687.81941                  25597061.576    25597060.199
  25597070.191                          35.750           7.2504
 120538721.392 7  93753311.083 6                  22589138.014    22589137.757
  22589154.328                          43.750          38.750
 116598041.947 7  90855546.62347                  22187848.017    22187848.290
  22187853.254                          46.000          35.7504
 128912989.505 6 100451681.20443                  24531327.249    24531327.590
  24531334.330                          37.750          20.0004
 106227200.532 8  82774447.38247                  20214358.989    20214358.834
  20214363.204                          53.250          44.5004
 124638739.118 6  96941364.107 6                  23365494.997    23365492.862
  23365509.290                          40.250          34.000
 127632605.038 6  99453974.20143                  24287677.005    24287675.366
  24287681.902                          36.500          21.5004
 115429218.027 7  89777411.237 6                  21555384.833    21555385.115
  21555400.329                          46.750          40.250
 120864778.198 7  94180348.40644                  22999798.977    22999799.102
  22999805.873                          42.500          29.7504
 120533460.666 6  93748838.863 6                  22540505.921    22540505.322
  22540523.875                          37.250          40.000
 11 10  1  0 19 30.0000000  0 20G10R19R01G16R12G03R10G20G23R11G32R02
                                G07G08G13R04G19R08G06R20
 118743829.820 7  92527655.12744                  22596199.205    22596198.381
  22596205.330                          46.000          29.2504
 126745793.201 6  98580276.450 6                  23693841.198    23693839.975
  23693856.005                          38.250          37.500
 106443200.394 8  82789147.366 6                  19912399.120    19912398.936
  19912415.363                          51.500          40.500
 111205686.304 8  86653790.46547                  21161734.685    21161734.050
  21161738.893                          50.000          42.7504
 120860769.212 7  94003230.218 6                  22625486.322    22625486.421
  22625505.743                          44.250          36.250
 116753059.978 7  90976407.74945                  22217368.099    22217367.314
  22217373.323                          46.000          33.0004
 114571624.607 8  89111435.661 6                  21493383.742    21493382.931
  21493402.393                          48.000          38.250
 126531576.521 7  98596029.91143                  24078159.757    24078157.815
  24078165.368                          42.250          20.0004
 106350673.793 8  82870659.47947                  20237857.397    20237857.080
  20237860.106                          53.000          45.5004
 105851361.368 8  82329372.396 7                  19808762.604    19808762.285
  19808779.295                          50.000          40.500
 134608104.491 5 104889430.31241                  25615069.590    25615068.897
  25615075.664                          34.500           6.5004
 120427254.967 7  93666615.005 6                  22568249.920    22568249.609
  22568265.077                          45.000          39.250
 116524943.288 7  90798586.64047                  22173938.397    22173938.065
  22173942.307                          47.000          35.7504
 128822595.115 6 100381244.06843                  24514126.480    24514125.415
  24514131.307                          38.750          19.0004
