     2.11           OBSERVATION DATA    G (GPS)             RINEX VERSION / TYPE
teqc  2010Mar17     gpsops              20111010 00:07:45UTCPGM / RUN BY / DATE
    30.0000                                                 INTERVAL
     1     1                                                WAVELENGTH FACT L1/2
     7    L1    L2    P1    P2    C1    S1    S2            # / TYPES OF OBSERV
Linux 2.4.21-27.ELsmp|Opteron|gcc -static|Linux x86_64|=+   COMMENT
     2.10           OBSERVATION DATA    GPS                 COMMENT
soc2rnx ver 1.20    gpsops              10-Oct-2011 00:07:44COMMENT
S1, if present, is the SNR for the C/A data stream on L1.   COMMENT
 SNR is mapped to RINEX snr flag value [1,4-9]              COMMENT
    SNR:   >316  >100  >31.6  >10  >3.2    >0 bad=0         COMMENT
L1 & L2:      9     8     7     6     5     4     1         COMMENT
JPL                 SRI                                     OBSERVER / AGENCY
CR620010504         ASH701945C_M    NONE                    ANT # / TYPE
  1575559.0735 -1941827.9411  5848076.4820                  APPROX POSITION XYZ
        0.0762        0.0000        0.0000                  ANTENNA: DELTA H/E/N
ZR520021809         ASHTECH UZ-12       CQ00                REC # / TYPE / VERS
KELY                                                        MARKER NAME
43005M002                                                   MARKER NUMBER
                                                            COMMENT
This data is provided as a public service by NASA/JPL.      COMMENT
No warranty is expressed or implied regarding suitability   COMMENT
for use.  For further information, contact:                 COMMENT
Dave Stowers, NASA/JPL m/s 238-600                          COMMENT
4800 Oak Grove Drive, Pasadena CA 91109 USA                 COMMENT
                                                            COMMENT
Forced Modulo Decimation to 30 seconds                      COMMENT
  2011    10     9     0     0    0.0000000     GPS         TIME OF FIRST OBS
                                                            END OF HEADER
 11 10  9  0  0  0.0000000  0  9G16G29G05G02G26G13G10G07G08
 125975598.67247  98162787.79947  23972370.5324   23972374.8034   23972369.7974
        45.000          38.000
 115667999.14747  90130887.32147  22010904.0014   22010908.3214   22010904.0744
        52.000          46.000
 107920419.06547  84093819.75447  20536583.1704   20536586.4854   20536583.3734
        55.000          51.000
 113936850.28347  88781957.17147  21681464.7804   21681466.0724   21681465.4624
        53.000          46.000
 122775608.16147  95669286.19847  23363434.0674   23363435.7334   23363434.0884
        46.000          39.000
 123201768.90547  96001361.89047  23444528.8694   23444532.6994   23444529.5194
        46.000          39.000
 116415793.51947  90713584.72247  22153203.9054   22153209.2874   22153205.4314
        51.000          44.000
 119882095.64147  93414601.35247  22812817.7954   22812822.0204   22812817.7454
        50.000          44.000
 127179466.97147  99100876.84547  24201451.6994   24201455.6224   24201452.6494
        44.000          38.000
 11 10  9  0  0 30.0000000  0  9G16G29G05G02G26G13G10G07G08
 125941302.64847  98136063.41247  23965843.6304   23965847.6924   23965844.2284
        44.000          38.000
 115691870.45847  90149488.36747  22015447.4564   22015450.8914   22015447.2334
        53.000          46.000
 117898330.04957  74076607.39057  20532379.2135   20532382.1665   20532379.0435
        56.000          51.000
 114018524.50147  88845599.37147  21697007.2544   21697008.6244   21697007.7724
        53.000          46.000
 122649378.11047  95570925.33247  23339413.2544   23339417.5464   23339413.1684
        47.000          40.000
 133303105.97357  86080325.08157  23463813.7925   23463817.7355   23463814.5815
        45.000          39.000
 116508719.29947  90785994.45547  22170887.9814   22170892.2274   22170888.6864
        51.000          44.000
 119828616.45047  93372929.27447  22802641.1274   22802644.3144   22802641.0744
        50.000          44.000
 127079844.72747  99023249.20647  24182493.7524   24182498.9814   24182494.3834
        44.000          38.000
 11 10  9  0  1  0.0000000  0  9G16G29G05G02G26G13G10G07G08
 125907580.53747  98109786.31247  23959426.3624   23959431.0864   23959427.2594
        45.000          39.000
 115716334.79447  90168551.56847  22020102.7734   22020106.0174   22020102.7554
        52.000          46.000
  97876748.28657  94059791.07757  20528271.7645   20528274.7215   20528271.5205
        56.000          51.000
 114100597.63947  88909552.42747  21712625.3074   21712626.5984   21712625.5954
        53.000          46.000
 122523354.01347  95472724.90547  23315431.2774   23315435.2324   23315430.7794
        46.000          39.000
 113404751.97357 106159532.12857  23483155.0505   23483158.8085   23483154.7195
        46.000          39.000
 116601933.30347  90858628.82147  22188625.8954   22188630.4864   22188626.8614
        50.000          44.000
 119775662.68247  93331666.30447  22792564.5744   22792567.6844   22792564.4574
        49.000          44.000
 126980462.26247  98945808.30647  24163582.4504   24163586.8264   24163583.1364
        46.000          39.000
 11 10  9  0  1 30.0000000  0  9G16G29G05G02G26G13G10G07G08
 125874473.40347  98083988.54447  23953126.4284   23953131.0464   23953127.1774
        45.000          39.000
 115741430.32047  90188106.53747  22024878.3694   22024882.3414   22024878.2374
        52.000          46.000
 117855721.15857  74043408.86757  20524269.1725   20524271.7085   20524268.6705
        56.000          51.000
 114183107.00847  88973845.45447  21728326.3394   21728327.5894   21728326.6714
        52.000          46.000
 122397578.35947  95374717.94747  23291497.2494   23291501.5764   23291496.6634
        48.000          40.000
 133506711.68657  86238982.20057  23502557.0705   23502560.6775   23502555.9455
        46.000          39.000
 116695472.38147  90931516.44647  22206425.7804   22206430.3674   22206426.5794
        51.000          44.000
 119723276.89947  93290846.13047  22782596.1184   22782599.3674   22782596.0084
        50.000          44.000
 126881361.94547  98868587.25947  24144724.3054   24144729.7524   24144724.9344
        45.000          39.000
 11 10  9  0  2  0.0000000  0  9G16G29G05G02G26G13G10G07G08
 125841945.49147  98058641.88047  23946936.9024   23946942.4014   23946937.0064
        45.000          39.000
 115767119.53247  90208123.86047  22029767.5804   22029770.3654   22029767.6264
        53.000          46.000
  97835196.00657  94027414.09657  20520364.2705   20520367.0905   20520363.9885
        56.000          51.000
 114266014.43947  89038448.61247  21744103.1804   21744104.3144   21744103.4494
        53.000          46.000
 122272018.00647  95276878.75447  23267603.9364   23267607.6104   23267603.3764
        47.000          40.000
 113608973.48157 106318670.72957  23522013.6035   23522016.2115   23522013.6105
        46.000          39.000
 116789298.17947  91004627.26147  22224280.2164   22224284.9464   22224281.2084
        51.000          44.000
 129671438.04857  83250454.86357  22772729.0345   22772732.8045   22772729.4955
        50.000          44.000
 126782511.03847  98791560.59247  24125913.8164   24125918.3674   24125914.3534
        45.000          39.000
 11 10  9  0  2 30.0000000  0  9G16G29G05G02G26G13G10G07G08
 125810018.92747  98033763.76547  23940860.8584   23940866.7634   23940861.8724
        44.000          38.000
 115793422.20747  90228619.26147  22034772.2744   22034776.6164   22034772.2664
        52.000          46.000
 117815213.18057  74011844.09457  20516560.9375   20516563.5445   20516560.6995
        56.000          51.000
 114349337.87247  89103375.87847  21759958.9774   21759960.3664   21759959.4394
        52.000          46.000
 122146695.75347  95179224.93147  23243755.7474   23243760.3774   23243756.0464
        48.000          41.000
 133711530.92257  86398588.20857  23541526.7195   23541528.3975   23541527.3545
        45.000          39.000
 116883428.35647  91077974.94747  22242192.8124   22242197.7864   22242193.8394
        50.000          44.000
 109620156.92357 103210499.11657  22762967.9845   22762970.8875   22762967.7065
        50.000          44.000
 126683932.09847  98714745.85747  24107154.4754   24107159.1844   24107155.0474
        45.000          39.000
 11 10  9  0  3  0.0000000  0  9G16G29G05G02G26G13G10G07G08
 125778701.80747  98009360.80547  23934901.2964   23934907.3294   23934901.6884
        44.000          38.000
 115820344.10547  90249597.32247  22039895.0874   22039899.8464   22039895.3594
        52.000          46.000
  97795765.78657  93996688.72457  20512860.5945   20512863.3085   20512860.4855
        56.000          51.000
 114433082.15547  89168631.00147  21775895.1264   21775896.5624   21775895.5194
        53.000          46.000
 122021622.04047  95081765.05747  23219954.9364   23219958.9854   23219955.1414
        47.000          40.000
 113814355.50457 106478703.81657  23561099.4195   23561102.9685   23561099.8085
        46.000          38.000
 116977868.85547  91151564.88747  22260164.4844   22260169.4894   22260165.3064
        51.000          44.000
 129569398.34157  83170942.60457  22753312.7265   22753316.8345   22753313.0925
        51.000          44.000
 126585634.95547  98638150.74147  24088448.9644   24088453.8254   24088449.6134
        45.000          39.000
 11 10  9  0  3 30.0000000  0  9G16G29G05G02G26G13G10G07G08
 125747962.65747  97985408.25347  23929052.1094   23929057.0534   23929052.2904
        45.000          38.000
 115847852.31347  90271032.38247  22045129.2704   22045134.3974   22045129.1294
        52.000          46.000
 117776825.46757  73981929.14057  20509257.0255   20509259.9825   20509256.9075
        56.000          51.000
 114517212.18247  89234186.40547  21791905.0124   21791906.5424   21791905.3624
        52.000          46.000
 121896766.72847  94984475.24447  23196195.4974   23196199.5504   23196195.8844
        47.000          40.000
 133917460.83357  86559041.81057  23580722.7785   23580727.3185   23580724.0915
        46.000          38.000
 117072584.32647  91225369.07147  22278188.2804   22278193.2464   22278189.0564
        51.000          44.000
 109519224.80657 103131850.99457  22743760.7765   22743764.0065   22743760.5755
        50.000          44.000
 126487590.02147  98561752.17747  24069791.4564   24069796.3634   24069791.8574
        46.000          39.000
 11 10  9  0  4  0.0000000  0  9G16G29G05G02G26G13G10G07G08
 125717829.17547  97961927.59847  23923317.1294   23923323.7854   23923317.7674
        44.000          38.000
 115875971.72847  90292943.61147  22050480.5894   22050483.7784   22050480.4534
        52.000          45.000
  97758431.86857  93967599.99857  20505755.8075   20505758.3635   20505755.2725
        56.000          51.000
 114601753.92547  89300062.99947  21807992.7354   21807994.3484   21807993.0454
        53.000          46.000
 121772159.45947  94887378.70347  23172483.5224   23172487.8894   23172483.5514
        47.000          40.000
 114020913.70157 106639661.22157  23600403.8735   23600406.6885   23600404.5165
        45.000          38.000
 117167599.28747  91299406.51747  22296269.1864   22296274.1814   22296270.2404
        50.000          44.000
 109469586.72047 103093171.96047  22734314.8794   22734318.2694   22734314.7854
        50.000          43.000
 126389826.64447  98485572.92147  24051188.5594   24051192.4964   24051188.6544
        46.000          39.000
 11 10  9  0  4 30.0000000  0  9G16G29G05G02G26G13G10G07G08
 125688297.57747  97938915.89447  23917698.0984   23917703.8704   23917698.5144
        43.000          38.000
 115904696.25447  90315326.41547  22055947.6834   22055949.9204   22055947.6854
        53.000          46.000
 117740557.88957  73953668.93557  20502355.3585   20502358.2685   20502355.1005
        56.000          51.000
 114686699.87647  89366254.48447  21824157.5724   21824159.2814   21824158.1054
        52.000          46.000
 121647797.96547  94790473.39047  23148818.8914   23148822.5124   23148818.6654
        47.000          40.000
 134124598.08657  86720447.57557  23620139.0885   23620143.4535   23620140.1975
        45.000          38.000
 117262907.05247  91373672.13047  22314405.8434   22314410.8224   22314406.7764
        50.000          44.000
 109420506.75947 103054927.29347  22724975.6724   22724979.3254   22724975.5454
        50.000          44.000
 126292342.71747  98409611.42647  24032637.5804   24032642.4374   24032638.1304
        45.000          39.000
 11 10  9  0  5  0.0000000  0  9G16G29G05G02G26G13G10G07G08
 125659370.46547  97916375.29047  23912193.3974   23912199.6714   23912193.9654
        43.000          38.000
 115934026.82947  90338181.75247  22061527.5434   22061532.0754   22061527.3624
        52.000          46.000
  97723226.03357  93940165.18657  20499056.8035   20499059.5255   20499056.4845
        56.000          51.000
 114772049.41847  89432760.66847  21840399.0684   21840400.5684   21840399.4614
        52.000          45.000
 121523686.33547  94693762.50047  23125201.2854   23125205.7414   23125201.5494
        47.000          40.000
 114228639.88157 106801529.03857  23639929.5545   23639931.8795   23639929.6705
        45.000          38.000
 117358506.56147  91448165.24547  22332597.7034   22332602.6974   22332598.8844
        50.000          44.000
 109371988.89447 103017120.94947  22715743.0694   22715746.5724   22715742.9074
        50.000          44.000
 126195142.32747  98333870.77647  24014140.9444   24014145.9514   24014141.5764
        45.000          39.000
 11 10  9  0  5 30.0000000  0  9G16G29G05G02G26G13G10G07G08
 125631051.17847  97894308.31347  23906804.7554   23906810.9744   23906805.2214
        46.000          39.000
 115963963.57747  90361509.18347  22067224.4154   22067228.4964   22067224.1094
        52.000          46.000
  97706426.00447  93927073.67447  20495860.2594   20495863.2294   20495860.0634
        56.000          51.000
 114857802.24747  89499581.03047  21856717.2094   21856718.7064   21856717.5574
        52.000          46.000
 121399831.36047  94597252.22647  23101632.2954   23101637.3624   23101632.1774
        47.000          40.000
 114332923.66647 106882789.61647  23659773.6864   23659776.6374   23659773.6504
        45.000          38.000
 117454398.20847  91522886.15347  22350845.4464   22350850.1174   22350846.3204
        51.000          44.000
 109324038.04347 102979756.94147  22706618.1044   22706621.7144   22706618.0664
        51.000          44.000
 126098231.05247  98258355.55347  23995698.8244   23995704.4224   23995699.3674
        45.000          39.000
 11 10  9  0  6  0.0000000  0  9G16G29G05G02G26G13G10G07G08
 125603332.77847  97872709.51647  23901530.4064   23901535.9444   23901530.8964
        46.000          39.000
 115994498.28147  90385302.66247  22073035.5494   22073039.6604   22073035.5744
        52.000          46.000
  97690155.66647  93914395.38947  20492764.2374   20492767.2054   20492763.9464
        56.000          51.000
 114943949.10747  89566708.34947  21873110.3524   21873112.0664   21873110.7674
        52.000          46.000
 121276227.17847  94500937.24347  23078111.4864   23078115.8704   23078111.4884
        46.000          40.000
 114437481.95947 106964263.36347  23679671.1534   23679673.6544   23679670.5324
        46.000          38.000
 117550571.45347  91597826.24947  22369146.4634   22369151.4564   22369147.4564
        50.000          44.000
 109276648.38047 102942830.59047  22697599.7834   22697602.9164   22697599.6364
        51.000          44.000
 126001604.02647  98183061.85247  23977311.3594   23977316.4324   23977311.8484
        45.000          39.000
 11 10  9  0  6 30.0000000  0  9G16G29G05G02G26G13G10G07G08
 125576219.37147  97851582.02847  23896371.0634   23896376.2944   23896371.8304
        44.000          38.000
 116025632.49747  90409563.17747  22078959.6324   22078964.9444   22078959.4084
        52.000          46.000
  97674418.00247  93902132.58447  20489769.2334   20489772.0644   20489769.0424
        56.000          51.000
 115030490.16647  89634142.61947  21889578.9154   21889580.7484   21889579.3624
        52.000          46.000
 121152878.98447  94404821.47547  23054638.9634   23054643.4474   23054638.9544
        46.000          40.000
 114542316.76547 107045952.82747  23699620.0004   23699622.2534   23699620.2374
        45.000          38.000
 117647028.08847  91672987.44847  22387501.6404   22387506.3044   22387502.6544
        51.000          43.000
 109229823.33247 102906344.04047  22688688.8644   22688692.0104   22688688.7904
        50.000          45.000
 125905267.06347  98107994.21847  23958978.9124   23958983.9584   23958979.7054
        46.000          39.000
 11 10  9  0  7  0.0000000  0  9G16G29G05G02G26G13G10G07G08
 125549721.96547  97830934.60247  23891329.1664   23891333.9444   23891329.6764
        45.000          39.000
 116057375.29347  90434297.98547  22085000.1554   22085003.5514   22085000.1994
        53.000          46.000
  97659222.46747  93890292.04647  20486877.4874   20486880.3084   20486877.1624
        56.000          51.000
 115117434.03447  89701890.87947  21906123.9104   21906125.6754   21906124.4874
        52.000          45.000
 121029800.25347  94308915.46847  23031218.4404   23031222.8354   23031218.4964
        46.000          40.000
 114647434.59547 107127862.88247  23719623.3714   23719626.2304   23719623.2884
        46.000          38.000
 117743775.67947  91748375.43447  22405911.8584   22405916.4394   22405912.6314
        50.000          43.000
 109183573.90047 102870305.54447  22679887.8264   22679891.0274   22679887.6624
        50.000          44.000
 125809232.44747  98033162.05447  23940704.6964   23940709.3754   23940705.3304
        46.000          39.000
 11 10  9  0  7 30.0000000  0  9G16G29G05G02G26G13G10G07G08
 125523814.97947  97810747.29747  23886399.1884   23886403.2544   23886399.8194
        45.000          38.000
 116089698.14647  90459484.70247  22091151.2744   22091154.4494   22091151.5204
        52.000          46.000
  97644542.08847  93878852.91347  20484083.8344   20484086.6654   20484083.6084
        55.000          51.000
 115204751.59947  89769930.34047  21922740.1364   21922741.9284   21922740.5984
        52.000          46.000
 120906967.81047  94213201.52447  23007844.4094   23007848.9054   23007844.3204
        47.000          41.000
 114752806.20947 107209970.73447  23739675.1704   23739677.5624   23739674.8974
        44.000          38.000
 117840784.69947  91823966.90647  22424371.8704   22424376.6964   22424372.9284
        50.000          43.000
 109137875.23947 102834695.87447  22671191.9804   22671195.2594   22671191.9494
        50.000          44.000
 125713476.89447  97958547.34447  23922482.7974   23922487.4144   23922483.2634
        46.000          39.000
 11 10  9  0  8  0.0000000  0  9G16G29G05G02G26G13G10G07G08
 125498523.63347  97791039.57347  23881586.1434   23881590.9954   23881586.7464
        46.000          38.000
 116122624.54347  90485141.71047  22097416.4854   22097419.2124   22097416.2514
        52.000          45.000
  97630400.01547  93867832.01747  20481393.5384   20481396.6254   20481393.2244
        56.000          51.000
 115292465.07047  89838278.25447  21939431.6614   21939433.4764   21939432.1284
        52.000          45.000
 120784409.46347  94117701.78947  22984522.1824   22984527.0164   22984521.9434
        47.000          40.000
 114858453.40947 107292293.41547  23759778.7964   23759781.2654   23759778.2784
        45.000          38.000
 117938077.99447  91899779.97447  22442886.1094   22442890.9364   22442887.1934
        50.000          43.000
 109092754.13747 102799536.39047  22662605.9174   22662609.0474   22662605.7014
        51.000          44.000
 125618027.39347  97884171.02647  23904319.2064   23904324.1804   23904319.7284
        46.000          40.000
 11 10  9  0  8 30.0000000  0  9G16G29G05G02G26G13G10G07G08
 125473840.73647  97771806.15247  23876889.2124   23876893.9824   23876889.5114
        45.000          38.000
 116156144.87547  90511261.62547  22103795.6044   22103797.6444   22103795.7574
        52.000          46.000
 117616795.81857  73857231.91257  20478804.1495   20478807.0005   20478804.1075
        56.000          51.000
 115380564.17947  89906926.81047  21956196.4384   21956198.4964   21956196.7664
        52.000          45.000
 120662116.78047  94022407.91747  22961251.0954   22961256.0004   22961251.3414
        48.000          41.000
 114964364.79047 107374822.13947  23779932.5144   23779934.9514   23779933.1194
        44.000          38.000
 118035644.50347  91975805.86447  22461452.4704   22461457.0864   22461453.1864
        50.000          43.000
 109048206.11947 102764824.26847  22654128.1874   22654131.2724   22654128.1734
        51.000          44.000
 125522878.73747  97810029.34347  23886212.7794   23886217.7224   23886213.3394
        46.000          40.000
 11 10  9  0  9  0.0000000  0  9G16G29G05G02G26G13G10G07G08
 125449775.18347  97753053.83947  23872309.4404   23872314.8424   23872309.8164
        46.000          39.000
 116190265.52947  90537849.08247  22110287.7664   22110291.9014   22110287.8404
        52.000          46.000
  97603724.96157  93847046.34257  20476317.4175   20476320.4265   20476317.0245
        56.000          51.000
 115469054.95347  89975880.71147  21973035.5624   21973037.3304   21973036.2564
        51.000          45.000
 120540104.23947  93927332.94947  22938033.2334   22938038.0524   22938033.2124
        49.000          41.000
 115070545.02147 107457560.09147  23800138.2714   23800140.9944   23800138.0384
        45.000          38.000
 118133490.26947  92052049.13847  22480071.9144   22480076.5884   22480073.0484
        50.000          44.000
 109004238.01247 102730564.06147  22645760.8084   22645763.6204   22645760.7674
        51.000          44.000
 125428041.06047  97736129.74347  23868165.9734   23868171.0604   23868166.3204
        46.000          40.000
 11 10  9  0  9 30.0000000  0  9G16G29G05G02G26G13G10G07G08
 125426326.58347  97734782.32547  23867847.7674   23867852.6854   23867848.3604
        45.000          39.000
 116224984.51447  90564902.81547  22116894.4284   22116898.8604   22116894.1214
        52.000          46.000
 117591197.12157  73837284.47157  20473933.2565   20473936.2415   20473933.3025
        56.000          51.000
 115557933.80947  90045137.00747  21989948.6294   21989950.4774   21989948.9674
        52.000          45.000
 130418381.42157  83832487.03557  22914869.4245   22914873.7295   22914871.4975
        48.000          41.000
 115176990.48047 107540504.52347  23820393.6514   23820396.8524   23820393.6474
        44.000          38.000
 118231612.18847  92128507.53147  22498744.1974   22498748.8694   22498745.0624
        50.000          43.000
 108960850.90047 102696756.31947  22637504.3384   22637507.0654   22637503.9804
        50.000          44.000
 125333516.66747  97662474.41347  23850179.0324   23850183.2014   23850179.3074
        46.000          40.000
 11 10  9  0 10  0.0000000  0  9G16G29G05G02G26G13G10G07G08
 125403478.47447  97716978.73547  23863499.3644   23863504.8404   23863499.9474
        46.000          39.000
 116260282.49347  90592407.64347  22123613.0074   22123615.9274   22123612.9944
        53.000          46.000
  97579193.59857  93827931.61257  20471648.8895   20471651.7845   20471648.4755
        56.000          51.000
 115647180.97847  90114680.15547  22006931.9144   22006933.8784   22006932.2724
        52.000          45.000
 110296903.50157 103737827.42657  22891753.9575   22891760.0835   22891754.7315
        47.000          41.000
 115283681.41347 107623640.45647  23840696.5364   23840698.6584   23840696.4724
        44.000          38.000
 118329992.13747  92205167.57247  22517464.8384   22517469.7064   22517465.8754
        50.000          43.000
 128918009.01857  82663370.35057  22629354.7535   22629358.2085   22629355.2265
        51.000          45.000
 125239290.48447  97589051.30047  23832248.2954   23832252.8334   23832248.7574
        46.000          40.000
 11 10  9  0 10 30.0000000  0  9G16G29G05G02G26G13G10G07G08
 125381250.83747  97699658.66247  23859270.3754   23859275.3844   23859270.8894
        45.000          39.000
 116296177.83747  90620377.96447  22130442.5894   22130444.9504   22130442.5584
        52.000          45.000
 117567727.28257  73818995.50757  20469466.8235   20469469.7285   20469466.5585
        56.000          51.000
 115736813.09347  90184522.90647  22023988.6264   22023990.7724   22023989.1744
        52.000          45.000
 130175681.35657  83643357.95257  22868695.1185   22868699.7795   22868695.0025
        48.000          41.000
 115390634.00447 107706980.12347  23861048.5994   23861051.7914   23861048.8204
        46.000          38.000
 118428644.87847  92282039.64147  22536238.1974   22536242.9774   22536239.0134
        50.000          43.000
 108875797.85357 102630483.37757  22621317.5185   22621319.9005   22621317.1455
        51.000          44.000
 125145384.86147  97515877.95347  23814378.1704   23814383.4744   23814379.2564
        46.000          40.000
 11 10  9  0 11  0.0000000  0  9G16G29G05G02G26G13G10G07G08
 125359612.25647  97682797.44247  23855152.2874   23855156.9644   23855152.8434
        44.000          38.000
 116332636.73547  90648787.21847  22137380.7794   22137385.0184   22137380.7414
        52.000          46.000
  97556769.82957  93810457.93357  20467382.7195   20467385.9025   20467382.6055
        56.000          51.000
 115826797.45347  90254640.50947  22041112.3194   22041114.2244   22041112.6594
        52.000          45.000
 130054763.41447  83549136.45347  22845684.4344   22845689.5644   22845684.3534
        47.000          41.000
 115497813.87947 107790496.96447  23881444.7154   23881446.8784   23881444.4714
        44.000          38.000
 118527536.68947  92359097.66847  22555056.9684   22555061.8134   22555057.9174
        50.000          43.000
 108834116.57147 102598003.99747  22613386.2364   22613388.7624   22613385.9884
        51.000          45.000
 125051771.23547  97442932.18547  23796564.1224   23796569.1904   23796564.9374
        46.000          40.000
 11 10  9  0 11 30.0000000  0  9G16G29G05G02G26G13G10G07G08
 125338580.22447  97666408.76247  23851148.9494   23851154.2124   23851149.4794
        45.000          38.000
 116369675.24847  90677648.29747  22144428.8794   22144432.9264   22144428.8784
        51.000          45.000
 117546345.58357  73802334.29157  20465398.2315   20465401.1975   20465397.9305
        56.000          51.000
 115917148.05447  90325043.68947  22058305.3774   22058307.2284   22058305.6054
        52.000          45.000
 129934124.00547  83455131.77347  22822727.6334   22822732.2184   22822727.6644
        48.000          41.000
 115605234.69447 107874201.51347  23901886.3294   23901888.5324   23901885.6294
        44.000          37.000
 118626682.10447  92436353.06047  22573924.5114   22573929.3594   22573925.4354
        50.000          43.000
 128792998.24457  82565962.85557  22605564.0215   22605566.6205   22605563.9865
        51.000          44.000
 124958468.65147  97370228.84547  23778809.4794   23778814.7204   23778810.1234
        47.000          40.000
 11 10  9  0 12  0.0000000  0 10G16G29G05G02G21G26G13G10G07G08
 125318247.54547  97650565.20947  23847279.7094   23847284.6444   23847280.3854
        46.000          38.000
 116407382.97647  90707030.81447  22151604.3294   22151608.4584   22151604.1744
        52.000          45.000
  97536534.58557  93794689.35257  20463532.0995   20463535.3225   20463531.6455
        56.000          51.000
 116007954.23247  90395802.01447  22075585.0094   22075586.8444   22075585.4084
        51.000          45.000
 141733434.08857  92649400.19457  25068060.7785   25068067.8255   25068060.8725
        44.000          38.000
 129813857.71147  83361417.87947  22799841.7644   22799845.9894   22799841.9244
        48.000          41.000
 115712985.07947 107958162.83547  23922390.3824   23922392.3724   23922390.0774
        45.000          37.000
 118726173.60147  92513879.25847  22592856.7634   22592861.6214   22592857.6204
        49.000          43.000
 108752536.95757 102534429.38757  22597867.9705   22597871.7265   22597868.8995
        50.000          44.000
 124865571.55847  97297841.56847  23761132.0994   23761136.8424   23761132.4374
        46.000          40.000
 11 10  9  0 12 30.0000000  0 10G16G29G05G02G21G26G13G10G07G08
 125298469.57047  97635153.55847  23843516.3254   23843522.2834   23843516.7024
        46.000          38.000
 116445613.79347  90736820.91647  22158878.9554   22158882.7214   22158878.6024
        52.000          45.000
 117527200.78357  73787417.20357  20461755.1465   20461758.1085   20461754.9555
        56.000          51.000
 116099068.55547  90466800.22447  22092923.4284   22092925.3614   22092923.6224
        52.000          45.000
 121630388.03057 112569112.96357  25048445.8785   25048450.9965   25048445.4045
        43.000          37.000
 129693822.92647  83267884.19647  22777000.0684   22777004.5074   22776999.9764
        48.000          41.000
 115820917.60747 108042266.11547  23942929.1624   23942931.2824   23942928.8784
        44.000          37.000
 118825862.17847  92591559.15747  22611826.5124   22611831.2014   22611827.2224
        49.000          43.000
 128712638.49457  82503342.70957  22590272.9705   22590275.8875   22590272.9325
        50.000          44.000
 124772937.83647  97225659.48747  23743504.2934   23743509.2034   23743505.0964
        47.000          40.000
 11 10  9  0 13  0.0000000  0 10G16G29G05G02G21G26G13G10G07G08
 125279328.54947  97620238.44047  23839875.3404   23839880.0104   23839875.9544
        47.000          39.000
 116484447.59647  90767081.01447  22166269.8544   22166272.7504   22166269.9034
        52.000          45.000
  97518418.45157  93780573.45157  20460084.2285   20460087.2835   20460084.1525
        56.000          51.000
 116190569.73847  90538099.78547  22110335.4574   22110337.4364   22110335.9314
        51.000          45.000
 141527387.71357  92488840.62457  25028854.1065   25028862.0145   25028853.3225
        42.000          37.000
 129574103.40247  83174596.23947  22754217.9574   22754222.8394   22754217.9414
        49.000          42.000
 115929110.70947 108126572.32947  23963517.8274   23963520.2814   23963517.8014
        45.000          37.000
 118925826.81147  92669454.24247  22630848.5924   22630853.4484   22630849.4194
        49.000          43.000
 108673328.76257 102472710.65957  22582792.5035   22582795.4155   22582792.4985
        51.000          45.000
 124680651.36447  97153748.01147  23725942.7784   23725947.5054   23725943.0204
        47.000          40.000
 11 10  9  0 13 30.0000000  0 10G16G29G05G02G21G26G13G10G07G08
 125260798.56247  97605799.39947  23836348.9124   23836354.3074   23836349.3654
        46.000          39.000
 116523856.28347  90797789.04147  22173768.6344   22173773.1444   22173768.5504
        51.000          46.000
 117510171.94157  73774148.87757  20458514.0515   20458516.8285   20458513.5125
        56.000          51.000
 116282429.55647  90609678.85547  22127815.9414   22127817.7084   22127816.1984
        51.000          45.000
 121424545.09857 112408709.38857  25009279.6315   25009286.6115   25009280.0085
        42.000          36.000
 129454675.31747  83081535.11147  22731491.9314   22731496.7364   22731492.0864
        49.000          42.000
 116037535.45947 108211059.07747  23984150.2674   23984152.9044   23984150.3494
        44.000          37.000
 119026037.49347  92747540.49747  22649918.0124   22649922.6224   22649918.9954
        49.000          42.000
 128634606.34357  82442539.88257  22575422.5865   22575425.3805   22575422.4105
        51.000          44.000
 124588687.26047  97082087.04947  23708442.9434   23708447.8884   23708443.5484
        47.000          40.000
 11 10  9  0 14  0.0000000  0 10G16G29G05G02G21G26G13G10G07G08
 125242884.32047  97591840.20847  23832939.3234   23832945.0034   23832940.0024
        44.000          38.000
 116563841.57647  90828946.25347  22181377.3414   22181382.2124   22181377.3284
        51.000          45.000
  97502450.92157  93768131.27857  20457045.8175   20457048.8915   20457045.6715
        56.000          51.000
 116374649.93047  90681538.79047  22145364.8484   22145366.8214   22145365.2694
        51.000          45.000
 121321790.62747 112328641.38047  24989725.4034   24989731.9954   24989726.3224
        42.000          36.000
 129335546.13447  82988706.94147  22708822.4494   22708827.1334   22708822.6544
        48.000          42.000
 116146191.69847 108295725.86647  24004827.2904   24004830.4244   24004827.1984
        43.000          37.000
 129126484.92757  82825809.32457  22669034.0555   22669039.7685   22669035.6575
        49.000          43.000
 128596464.65447  82412818.94947  22568164.5704   22568167.5794   22568164.3234
        50.000          44.000
 124497055.51347  97010686.07847  23691005.9504   23691010.3204   23691006.4914
        47.000          40.000
 11 10  9  0 14 30.0000000  0 10G16G29G05G02G21G26G13G10G07G08
 125225594.27647  97578367.40947  23829648.5354   23829655.0424   23829648.4744
        45.000          39.000
 116604410.77247  90860558.61347  22189097.8094   22189101.5394   22189097.7324
        52.000          46.000
 117495278.99057  73762543.61457  20455679.4125   20455682.3725   20455679.0835
        56.000          51.000
 116467236.30747  90753683.85847  22162983.6354   22162985.6334   22162984.0674
        51.000          45.000
 121219149.47847 112248661.44047  24970194.1744   24970200.3334   24970194.3444
        43.000          35.000
 129216726.04347  82896119.43447  22686212.2434   22686216.8954   22686212.3294
        49.000          42.000
 116255084.86347 108380577.02247  24025548.9664   24025552.5034   24025549.1714
        44.000          37.000
 109227205.58757 102904293.04857  22688200.4705   22688205.4065   22688201.5035
        49.000          42.000
 128558920.20547  82383563.99047  22561019.7364   22561022.7084   22561019.7074
        51.000          44.000
 124405764.55247  96939550.45247  23673633.4114   23673638.3304   23673634.2964
        46.000          40.000
 11 10  9  0 15  0.0000000  0 10G16G29G05G02G21G26G13G10G07G08
 125208923.85647  97565377.37447  23826476.5214   23826482.0254   23826477.2094
        44.000          38.000
 116645556.93847  90892620.60247  22196928.5024   22196931.4424   22196928.5794
        52.000          45.000
 117488636.86347  73757368.10947  20454415.3804   20454418.2124   20454415.0934
        56.000          51.000
 116560181.38347  90826108.42947  22180670.4494   22180672.6104   22180670.8804
        51.000          44.000
 121116618.43347 112168767.21547  24950683.1604   24950688.1824   24950683.1404
        45.000          35.000
 129098214.01447  82803772.24547  22663660.0734   22663665.1074   22663660.3624
        49.000          42.000
 136364169.75057  88465569.81357  24046314.5795   24046318.6475   24046315.8585
        44.000          37.000
 109328168.11547 102982965.35947  22707413.0554   22707417.5894   22707413.9664
        49.000          42.000
 128521968.01047  82354770.49347  22553987.7224   22553990.3604   22553987.4964
        51.000          44.000
 124314812.25947  96868678.79647  23656325.5444   23656330.3254   23656326.0184
        47.000          40.000
 11 10  9  0 15 30.0000000  0 10G16G29G05G02G21G26G13G10G07G08
 125192872.11547  97552869.44847  23823422.8294   23823427.5034   23823423.0444
        45.000          39.000
 116687276.83947  90925129.72847  22204867.2404   22204870.4664   22204867.3444
        51.000          45.000
  97482523.74157  93752605.14157  20453252.3235   20453254.9845   20453252.2335
        56.000          51.000
 116653480.99147  90898809.19247  22198425.1104   22198426.9754   22198425.3914
        51.000          44.000
 121014197.82147 112088958.99547  24931192.4824   24931197.8994   24931192.9284
        45.000          35.000
 128980011.18947  82711666.25247  22641166.3894   22641171.5154   22641166.7474
        49.000          42.000
 116473614.91657 108550871.47757  24067126.6435   24067125.9865   24067124.8045
        45.000          36.000
 109429373.06247 103061825.65847  22726671.7984   22726677.3344   22726672.9164
        49.000          42.000
 108485581.52257 102326410.93657  22547067.9105   22547071.6295   22547068.1445
        50.000          44.000
 124224199.49847  96798071.37547  23639082.7174   23639087.5244   23639083.3804
        47.000          40.000
 11 10  9  0 16  0.0000000  0 10G16G29G05G02G21G26G13G10G07G08
 125177452.81347  97540854.13747  23820489.0164   23820494.8284   23820489.6394
        45.000          39.000
 116729581.86047  90958094.58947  22212917.3914   22212921.6214   22212917.1864
        52.000          46.000
 117476962.92757  73748272.19457  20452194.1965   20452196.8365   20452194.0815
        56.000          51.000
 116747146.45347  90971794.99247  22216249.1854   22216251.4684   22216249.4134
        50.000          44.000
 120911902.25947 112009247.89547  24911726.3194   24911731.7754   24911727.0204
        45.000          36.000
 128862132.91047  82619812.84847  22618735.7104   22618740.1654   22618735.5814
        48.000          42.000
 136583161.04757  88636226.62157  24087977.1015   24087977.8855   24087977.4505
        44.000          36.000
 129530819.95457  83140872.72557  22745978.6015   22745985.0045   22745980.8835
        49.000          43.000
 128449829.11857  82298553.38657  22540264.0335   22540267.5915   22540264.2875
        51.000          45.000
 124133943.25447  96727742.14147  23621907.2764   23621912.2324   23621907.7324
        47.000          41.000
 11 10  9  0 16 30.0000000  0 10G16G29G05G02G21G26G13G10G07G08
 125162641.81547  97529312.93147  23817669.9074   23817676.7504   23817670.4574
        45.000          39.000
 116772445.73447  90991494.89647  22221074.3644   22221078.0034   22221074.4474
        51.000          45.000
  97471925.13257  93744346.92657  20451235.3815   20451237.9805   20451235.1365
        56.000          51.000
 116841151.33547  91045045.52047  22234137.7074   22234139.9434   22234137.9504
        50.000          44.000
 120809709.95347 111929617.52647  24892279.3614   24892285.4564   24892280.1114
        43.000          36.000
 128744557.77947  82528195.69647  22596361.6304   22596366.5334   22596361.5614
        49.000          42.000
 116692894.77957 108721719.98857  24108868.5315   24108873.5445   24108868.9365
        44.000          36.000
 109632583.16957 103220182.95257  22765330.5935   22765335.3205   22765331.4585
        49.000          42.000
 108414679.01257 102271167.27557  22533571.8355   22533574.4425   22533571.6005
        51.000          45.000
 124044020.22247  96657672.18447  23604795.4444   23604800.0524   23604796.2734
        47.000          41.000
 11 10  9  0 17  0.0000000  0  9G16G29G05G02G21G26G13G10G07
 125148465.96647  97518266.59047  23814971.9174   23814978.9334   23814972.1804
        45.000          39.000
 116815893.13047  91025349.86747  22229342.0674   22229346.5344   22229342.2304
        51.000          46.000
 117467427.54557  73740840.16357  20450381.1035   20450384.1785   20450381.1915
        55.000          51.000
 116935519.20747  91118578.92647  22252095.5544   22252097.5224   22252095.9584
        50.000          44.000
 120707648.66847 111850089.38947  24872856.8844   24872864.4704   24872858.0764
        40.000          36.000
 128627315.05847  82436837.57947  22574051.3984   22574056.2254   22574051.4244
        49.000          42.000
 116802921.49147 108807454.58147  24129809.1874   24129812.9514   24129808.9464
        45.000          37.000
 109734525.57347 103299619.00247  22784729.2254   22784734.2914   22784730.1224
        49.000          42.000
 108380118.31147 102244236.56047  22526995.4204   22526997.9274   22526995.3294
        51.000          45.000
 11 10  9  0 17 30.0000000  0  9G16G29G05G02G21G26G13G10G07
 125134903.66547  97507698.40247  23812391.8834   23812398.0544   23812392.0014
        46.000          39.000
 116859901.14547  91059641.87047  22237715.7924   22237720.9564   22237715.5524
        51.000          45.000
  97463477.43357  93737765.50657  20449626.8945   20449629.1475   20449626.5785
        56.000          51.000
 117030225.50447  91192375.93547  22270117.2554   22270119.6294   22270117.5634
        50.000          44.000
 120605698.01947 111770647.64447  24853456.8674   24853463.6934   24853457.2854
        40.000          36.000
 128510385.90547  82345723.97647  22551800.4554   22551805.4164   22551800.4124
        49.000          42.000
 116913155.74347 108893350.77047  24150785.9964   24150789.3174   24150786.3884
        42.000          36.000
 109836696.12847 103379232.57247  22804171.6194   22804176.4854   22804172.4834
        49.000          43.000
 108346147.23447 102217764.94347  22520531.3224   22520533.9394   22520531.2094
        51.000          45.000
 11 10  9  0 18  0.0000000  0  9G16G29G05G02G21G26G13G10G07
 125121985.44247  97497632.00947  23809934.3834   23809940.0784   23809934.9774
        45.000          39.000
 116904497.43547  91094392.12247  22246202.1814   22246206.6154   22246202.0224
        51.000          45.000
 117460071.38157  73735111.30857  20448978.9265   20448981.2585   20448978.6045
        56.000          51.000
 117125298.85647  91266459.02547  22288209.2534   22288211.5924   22288209.4744
        51.000          44.000
 120503889.88847 111691316.64347  24834083.9244   24834091.0154   24834084.5164
        44.000          37.000
 128393803.56447  82254880.76947  22529615.4354   22529620.3244   22529615.5514
        48.000          42.000
 117023625.53647 108979431.08747  24171807.7134   24171811.1424   24171807.7804
        42.000          36.000
 109939122.81547 103459045.38547  22823662.7614   22823667.8024   22823663.8394
        49.000          42.000
 108312798.19547 102191778.20647  22514185.6024   22514188.3314   22514185.4234
        50.000          45.000
 11 10  9  0 18 30.0000000  0  9G16G29G05G02G21G26G13G10G07
 125109666.71847  97488032.76947  23807590.4254   23807596.0974   23807590.6554
        45.000          39.000
 116949635.21847  91129564.40247  22254792.6134   22254795.7424   22254792.5764
        52.000          45.000
  97457178.39557  93732857.03857  20448427.4805   20448429.7055   20448427.0945
        56.000          51.000
 117220690.97347  91340790.45847  22306362.0584   22306364.2004   22306362.3124
        51.000          44.000
 120402181.41047 111612063.40847  24814729.5064   24814736.0194   24814730.1334
        47.000          39.000
 128277525.29547  82164274.56647  22507488.1874   22507492.7484   22507487.9874
        49.000          42.000
 117134281.69147 109065655.91147  24192865.4024   24192869.4334   24192865.8554
        43.000          36.000
 110041758.94547 103539021.71147  22843193.7924   22843198.7594   22843194.5594
        48.000          42.000
 108280027.27547 102166242.44047  22507949.3444   22507952.4264   22507949.1154
        51.000          45.000
 11 10  9  0 19  0.0000000  0 10G16G29G05G02G21G26G13G10G07G08
 125097993.27947  97478936.53647  23805368.7134   23805374.9704   23805369.2934
        45.000          39.000
 116995357.74847  91165192.30447  22263493.2734   22263496.4854   22263493.2964
        51.000          45.000
 117454837.00957  73731032.21257  20447983.1575   20447985.6165   20447983.0795
        56.000          51.000
 117316445.25947  91415404.20647  22324583.1504   22324585.4844   22324583.6634
        50.000          44.000
 120300620.43847 111532925.77247  24795402.5404   24795408.2094   24795403.0404
        47.000          39.000
 128161598.89847  82073942.36747  22485428.2454   22485432.7274   22485428.1904
        49.000          42.000
 117245167.70247 109152060.30747  24213966.3164   24213969.9584   24213966.2374
        43.000          36.000
 110144645.92647 103619192.86747  22862772.9444   22862778.3194   22862774.0254
        48.000          42.000
 108247880.74847 102141193.34647  22501832.0054   22501834.9164   22501831.9144
        51.000          45.000
 133599716.20157  86311446.10757  23520260.1835   23520265.4215   23520260.0645
        47.000          41.000
 11 10  9  0 19 30.0000000  0  9G16G29G05G02G21G26G10G07G08
 125086928.17347  97470314.19647  23803263.4524   23803269.4624   23803263.8674
        47.000          39.000
 117041626.51747  91201245.76847  22272297.3914   22272302.3064   22272297.0154
        52.000          46.000
  97453017.25557  93729613.71357  20447637.1955   20447639.7415   20447636.9275
        56.000          51.000
 117412522.31347  91490269.50647  22342866.2224   22342868.3144   22342866.5384
        51.000          44.000
 120199170.18947 111453874.21447  24776096.8254   24776103.2464   24776097.3974
        46.000          39.000
 128045990.47147  81983857.98747  22463428.4584   22463433.3964   22463428.3274
        50.000          43.000
 110247746.23647 103699530.38347  22882392.7194   22882397.6864   22882393.5744
        48.000          42.000
 108216321.80647 102116601.96047  22495826.6154   22495829.3254   22495826.2874
        51.000          45.000
 113511957.79457 106243066.86557  23503556.3125   23503560.2715   23503557.1585
        48.000          41.000
 11 10  9  0 20  0.0000000  0 10G16G29G05G02G21G26G13G10G07G08
 125076502.85647  97462190.25947  23801280.5194   23801285.2134   23801280.8244
        46.000          39.000
 117088471.35847  91237748.18647  22281212.3474   22281216.6914   22281212.4684
        52.000          45.000
 117451761.21057  73728636.67757  20447396.1705   20447398.0905   20447395.7575
        56.000          51.000
 117508951.58847  91565409.30447  22361216.0004   22361218.1304   22361216.1804
        50.000          44.000
 120097863.49247 111374933.93047  24756818.8424   24756825.0424   24756819.3474
        43.000          37.000
 127930734.70447  81894048.36547  22441496.0234   22441500.5894   22441495.6104
        49.000          42.000
 137467587.99257  89325386.21157  24256281.3585   24256283.2395   24256281.4615
        43.000          37.000
 110351089.80747 103780057.88047  22902058.1234   22902063.4224   22902059.1034
        48.000          42.000
 108185384.81047 102092495.53847  22489939.1004   22489942.0464   22489938.9754
        51.000          45.000
 133424536.33157  86174940.19657  23486925.4225   23486930.9885   23486926.0205
        47.000          41.000
 11 10  9  0 20 30.0000000  0 10G16G29G05G02G21G26G13G10G07G08
 125066681.69547  97454537.20147  23799411.2264   23799416.4194   23799411.6154
        45.000          39.000
 117135853.93847  91274669.59947  22290227.9494   22290232.1364   22290227.7474
        50.000          45.000
  97451000.36257  93728041.75057  20447252.8595   20447255.2865   20447252.7945
        56.000          51.000
 117605693.45647  91640792.63847  22379625.3544   22379627.5314   22379625.6244
        50.000          44.000
 119996666.26447 111296078.61747  24737561.7404   24737567.8084   24737561.7304
        40.000          35.000
 127815797.63147  81804487.10047  22419623.8104   22419628.7154   22419624.2714
        49.000          42.000
 117579114.33357 109412300.24657  24277495.3285   24277494.4165   24277494.3085
        43.000          36.000
 110454637.42847 103860744.35847  22921762.8204   22921767.9424   22921763.5824
        48.000          42.000
 108155033.31147 102068845.40147  22484163.2104   22484165.9444   22484162.9294
        51.000          45.000
 113337506.29957 106107127.58557  23470362.0025   23470366.8285   23470362.1755
        48.000          41.000
 11 10  9  0 21  0.0000000  0 10G16G29G05G02G21G26G13G10G07G08
 125057515.56247  97447394.39147  23797666.6984   23797672.9414   23797666.9414
        45.000          38.000
 117183823.63547  91312048.70347  22299357.3264   22299361.0384   22299357.1464
        52.000          45.000
 117450810.07557  73727892.26957  20447217.4585   20447220.1215   20447217.2365
        56.000          51.000
 117702797.48947  91716458.23547  22398103.3394   22398105.4064   22398103.6824
        50.000          44.000
 119895631.57347 111217349.71447  24718335.1314   24718340.6724   24718335.6714
        42.000          34.000
 127701233.47447  81715216.42647  22397823.2674   22397827.8524   22397823.0184
        49.000          42.000
 137690791.03557  89499313.33357  24298752.1915   24298753.0615   24298752.0065
        42.000          35.000
 130558386.87657  83941576.66057  22941515.3745   22941520.9165   22941515.9435
        48.000          42.000
 108125319.32047 102045691.83647  22478508.6534   22478511.4884   22478508.4484
        51.000          45.000
 133250836.66357  86039587.35457  23453874.0465   23453880.3705   23453874.9995
        48.000          41.000
 11 10  9  0 21 30.0000000  0 10G16G29G05G02G21G26G13G10G07G08
 135048951.52157  87440720.08857  23796039.8075   23796044.8725   23796038.7195
        46.000          39.000
 127232293.96657  81349810.43957  22308586.1075   22308593.2845   22308586.2225
        50.000          45.000
  97451146.14057  93728154.90357  20447280.8815   20447283.4145   20447280.6115
        56.000          51.000
 127800235.44157  81792387.43557  22416642.3265   22416643.2315   22416641.8845
        51.000          44.000
 139794763.66257  91138761.00257  24699133.8565   24699138.4695   24699132.5825
        44.000          36.000
 107587034.00357 101626239.48457  22376084.9845   22376090.2805   22376084.6435
        49.000          42.000
 117802586.14457 109586409.17957  24320039.5335   24320044.8625   24320041.6955
        42.000          36.000
 110662393.70457 104022622.67457  22961306.4295   22961311.3565   22961307.5255
        48.000          41.000
 128096189.15557  82022991.91157  22472967.0525   22472970.1205   22472967.3295
        51.000          45.000
 113164574.04757 105972373.75857  23437455.6565   23437461.1145   23437455.9895
        48.000          41.000
 11 10  9  0 22  0.0000000  0 11G16G29G05G02G21G15G26G13G10G07G08
 115041025.91657 107434542.70857  23794533.7485   23794539.5855   23794535.1715
        46.000          39.000
 107281406.14857 101388085.61657  22317926.6755   22317931.4655   22317926.8765
        50.000          45.000
 117452030.71857  73728844.75957  20447449.5995   20447452.1695   20447449.4545
        56.000          51.000
 107897964.94057 101868533.65357  22435245.0215   22435247.2295   22435245.4855
        50.000          44.000
 119693948.25257 111060192.21657  24679958.9035   24679963.4815   24679958.9515
        45.000          37.000
 142545518.52257  93282197.34957  25222593.3785   25222597.3755   25222592.3565
        42.000          35.000
 127473193.58957  81537537.37657  22354416.9345   22354421.7585   22354417.0105
        49.000          42.000
 137914737.12757  89673810.43057  24341373.5035   24341376.1925   24341372.1405
        42.000          36.000
 130766627.54957  84103843.96157  22981142.4765   22981148.0475   22981143.8135
        48.000          42.000
 108067697.37657 102000790.71057  22467544.7925   22467547.7075   22467545.0235
        51.000          45.000
 133078655.18957  85905415.20757  23421112.1205   23421119.5085   23421112.6865
        48.000          41.000
 11 10  9  0 22 30.0000000  0 10G16G29G05G02G15G26G13G10G07G08
 115033738.00847 107428863.65747  23793147.1334   23793152.7984   23793147.8014
        46.000          39.000
 107331035.48447 101426757.84847  22327372.0434   22327375.4444   22327371.8214
        53.000          45.000
  97453449.11257  93729949.69057  20447719.6705   20447722.3165   20447719.4025
        55.000          51.000
 107996050.73647 101944964.20947  22453910.3244   22453912.6714   22453910.6504
        50.000          43.000
 142426280.56447  93189284.77247  25199902.4484   25199907.1744   25199902.2124
        41.000          36.000
 127359675.16347  81449081.36247  22332815.3804   22332819.9834   22332815.4434
        49.000          43.000
 118027002.80857 109761288.92857  24362737.1515   24362739.9335   24362738.8605
        42.000          36.000
 110871115.58057 104185267.97557  23001021.2865   23001025.4335   23001021.8525
        48.000          41.000
 128039835.64857  81979085.46057  22462239.2385   22462240.9565   22462238.8075
        51.000          45.000
 112993192.47357 105838831.39557  23404841.3065   23404846.1405   23404840.9015
        48.000          41.000
 11 10  9  0 23  0.0000000  0 11G16G29G05G02G21G15G26G13G10G07G08
 115027057.46447 107423657.82147  23791876.2834   23791881.8434   23791876.1494
        46.000          39.000
 107381195.67247 101465843.80547  22336916.6204   22336920.5144   22336916.5994
        51.000          45.000
 117455385.95257  73731458.37357  20448088.0065   20448090.6105   20448087.7665
        56.000          51.000
 108094440.15547 102021631.27347  22472633.4204   22472635.3214   22472633.7664
        50.000          43.000
 139492830.80257  90903479.95857  24641684.3835   24641690.2525   24641684.9365
        46.000          40.000
 142307067.32347  93096391.47247  25177217.2404   25177221.1084   25177216.6854
        42.000          36.000
 127246492.13447  81360886.70447  22311276.9854   22311282.0154   22311277.3284
        49.000          43.000
 138139459.26357  89848916.10057  24384138.0935   24384141.2525   24384138.3265
        45.000          36.000
 130975721.44557  84266767.35357  23020935.7235   23020942.6175   23020936.5115
        48.000          42.000
 108012525.80457 101957800.35357  22457045.7325   22457048.5675   22457045.2455
        50.000          45.000
 132908012.57257  85772451.06857  23388636.7105   23388643.0225   23388637.4145
        47.000          41.000
 11 10  9  0 23 30.0000000  0 11G16G29G05G02G21G15G26G13G10G07G08
 135021052.12457  87418981.28757  23790731.2885   23790737.7525   23790731.6555
        47.000          39.000
 127432002.47857  81505446.08357  22346572.8355   22346577.2185   22346572.7535
        51.000          45.000
  97457897.28757  93733416.79457  20448565.5525   20448567.9985   20448565.2435
        56.000          51.000
 128193227.35857  82098616.90157  22491424.3475   22491426.4975   22491424.6785
        49.000          43.000
 119392526.19057 110825326.58657  24622593.2065   24622597.7545   24622593.5305
        45.000          39.000
 122187919.77557 113003545.33157  25154547.2685   25154552.6435   25154546.6075
        41.000          35.000
 107133661.35457 101272956.77457  22289814.4345   22289819.6005   22289814.8485
        50.000          43.000
 118252198.54757 109936779.09357  24405577.9215   24405580.5435   24405577.8395
        43.000          36.000
 111080655.79157 104348543.68157  23040897.7085   23040903.2535   23040898.8275
        48.000          41.000
 127985876.79157  81937034.15557  22451975.5825   22451978.7455   22451975.4695
        51.000          45.000
 112823282.63057 105706427.77757  23372513.4205   23372519.8325   23372515.1875
        48.000          42.000
 11 10  9  0 24  0.0000000  0 10G16G29G05G02G15G26G13G10G07G08
 135015632.08947  87414757.59747  23789700.0364   23789707.1974   23789700.5894
        46.000          39.000
 127483262.99847  81545389.35247  22356327.8134   22356332.0174   22356327.7544
        51.000          45.000
 117460910.19957  73735765.94057  20449138.6025   20449140.9145   20449138.1565
        56.000          51.000
 128292262.20247  82175786.92247  22510270.2704   22510272.3154   22510270.4734
        50.000          43.000
 122068805.98747 112910729.52747  25131880.0004   25131885.1984   25131880.1244
        42.000          37.000
 107021204.16647 101185327.93247  22268414.7754   22268419.7004   22268414.8394
        50.000          43.000
 118365021.01047 110024692.87347  24427047.2104   24427050.2614   24427046.6014
        42.000          36.000
 111185739.31947 104430427.35747  23060894.3124   23060899.3724   23060895.1104
        48.000          41.000
 107959832.55357 101916743.96957  22447016.7615   22447019.0315   22447016.6825
        51.000          45.000
 132738957.65357  85640729.16557  23356460.4495   23356464.7775   23356460.2695
        48.000          41.000
 11 10  9  0 24 30.0000000  0 10G16G29G05G02G15G26G13G10G07G08
 135010843.92947  87411026.33847  23788789.6764   23788795.8864   23788790.2034
        46.000          39.000
 127535072.37247  81585760.18847  22366186.8264   22366190.6654   22366186.8164
        51.000          44.000
  97464454.28857  93738523.81357  20449814.2665   20449817.0325   20449814.1315
        56.000          51.000
 128391616.93247  82253205.57747  22529177.0484   22529179.5234   22529177.5224
        50.000          43.000
 121949746.37747 112817955.81447  25109223.9164   25109228.8664   25109224.0424
        43.000          35.000
 106909114.22647 101097984.82047  22247085.0814   22247089.5994   22247085.1524
        50.000          43.000
 118478027.54747 110112749.85247  24448551.8764   24448554.2544   24448551.1664
        40.000          36.000
 111291036.46647 104512477.59547  23080931.2544   23080936.2354   23080932.2214
        47.000          41.000
 127934403.81257  81896930.26857  22442177.1235   22442179.1485   22442176.4405
        51.000          45.000
 112654998.66857 105575307.91057  23340481.9565   23340485.7885   23340481.8845
        49.000          42.000
 11 10  9  0 25  0.0000000  0 10G16G29G05G02G15G26G13G10G07G08
 135006705.60447  87407801.55047  23788001.7494   23788007.9404   23788002.3114
        47.000          39.000
 127587446.94447  81626571.78647  22376152.8484   22376156.2524   22376152.6714
        51.000          45.000
 117468560.43457  73741723.57757  20450596.2865   20450599.2565   20450596.0835
        55.000          51.000
 128491307.73347  82330886.20647  22548148.1804   22548150.4824   22548148.4754
        49.000          43.000
 121830760.65247 112725239.63247  25086582.4364   25086586.2334   25086582.0754
        43.000          37.000
 106797412.75847 101010944.25847  22225829.3274   22225834.4634   22225829.3974
        50.000          43.000
 118591233.51847 110200962.49147  24470093.8864   24470095.8344   24470093.6184
        44.000          35.000
 111396559.85947 104594702.69247  23101012.4294   23101017.7914   23101013.2414
        48.000          41.000
 107909583.91557 101877585.56957  22437457.0195   22437460.0645   22437457.0245
        51.000          45.000
 132571423.92157  85510180.85657  23324581.5175   23324586.3545   23324582.3445
        48.000          41.000
 11 10  9  0 25 30.0000000  0 10G16G29G05G02G15G26G13G10G07G08
 135003187.63247  87405060.26747  23787332.3464   23787338.6424   23787333.3094
        46.000          39.000
 127640354.54147  81667798.62247  22386221.5334   22386225.1944   22386221.2934
        52.000          45.000
  97473202.52457  93745341.58257  20451478.1255   20451480.8875   20451478.0625
        55.000          51.000
 108591276.06957 102408776.38057  22567177.0755   22567178.7725   22567176.9385
        50.000          43.000
 121711821.04647 112632559.44047  25063948.9114   25063953.8564   25063948.3874
        44.000          35.000
 106686075.49647 100924188.59147  22204642.0884   22204646.8704   22204642.1974
        50.000          43.000
 118704606.46247 110289305.04247  24491666.9794   24491669.9524   24491667.7734
        43.000          35.000
 111502280.94847 104677081.93247  23121131.2734   23121136.4064   23121132.1354
        48.000          41.000
 127885410.62557  81858752.78457  22432854.6235   22432856.8285   22432854.0185
